ac_id_09,booth_id_14,booth_name_14,district_name_14,latitude,longitude,modis,modis_rank
98,121,"Govt Govt Girls Sec Sec School,gujariyawas ,room No 2 Kishangarh",AJMER,26.57000309,74.87594719,"Urban area",7
98,122,"Govt Govt Girls Sec Sec School,gujariyawas, Room No 3 Kishangarh",AJMER,26.57000309,74.87594719,"Urban area",7
98,123,"Govt Govt Upper Primary School Dhani Purohitan Kishangarh",AJMER,26.5432095,74.82517345,,
98,124,"Govt Govt Sec Sec School, Maliyon Ki Badi ,northern Part",AJMER,26.55305054,74.87619029,,
98,125,"Govt Govt Sec Sec School, Maliyon Ki Badi ,southern Part",AJMER,26.55305054,74.87619029,,
98,126,"Govt Govt Upper Primary School Udaipur Kalan",AJMER,26.50748244,74.83388839,,
98,127,"Govt Govt Sen Sen Sec Sec School, Silora",AJMER,26.52450358,74.85126842,,
98,128,"Govt Govt Upper Primary School ,kachariya",AJMER,26.52535423,74.88230261,,
98,129,"Govt Govt Secondary School, Biti",AJMER,26.54295772,74.95583916,,
98,130,"Govt Govt Upper Primary School Rari",AJMER,26.52765575,74.93824928,,
98,131,"Govt Govt Secondary School Purana Bhawan Sargaon",AJMER,26.55591228,74.92803354,,
98,132,"Govt Govt Primary School , Rampura Ki Dhani",AJMER,26.54335349,74.92958737,,
102,74,"Govt Govt Secondary School, Makerera, Rightside Room No No 1",AJMER,26.31788123,74.52796123,,
102,75,"Govt Secondary School, Mangliyawas, Room No No 1",AJMER,26.27702713,74.51013856,,
102,76,"Govt Govt Upper Primary School, Daulatkhera",AJMER,26.26730439,74.48738574,,
102,77,"Govt Secondary School, Mangliyawas, Room No No 2",AJMER,26.27702714,74.51013856,,
102,78,"Govt Govt Higher Secondary School, Berkichiyawas, North Side Room No 10",AJMER,26.25621569,74.53772393,,
102,79,"Govt Govt Higher Secondary School, Berkichiyawas,southen side side Room No 2",AJMER,26.25621569,74.53772393,,
102,80,"Govt Govt Primary School, Berkichiyawas",AJMER,26.25843631,74.54034884,,
102,81,"Govt Govt Upper Primery School, Arjunpura Jagir",AJMER,26.2938768,74.54899419,,
102,82,"Govt Sr Sr Secondary School, Keserpura, East Side Room No 1",AJMER,26.31325402,74.54623417,,
102,83,"Govt Sr Sr Secondary School, Keserpura, West Side Room No 2",AJMER,26.31325402,74.54623417,,
102,84,"Govt Govt Upper Primery School, Kotaz",AJMER,26.30308596,74.58462232,,
102,85,"Govt Sr Sr Sec School, Rajgarh Room No1",AJMER,26.30382342,74.61936213,,
103,1,"Govt Govt Seccondary School Roop Nagar",AJMER,26.16222582,74.28526122,,
103,2,"Govt Govt Secondary School Roop Nagar",AJMER,26.16222582,74.28526122,,
103,3,"Govt Govt Upper Priamary School Saradhana",AJMER,26.17632603,74.31235362,,
103,23,"Govt Govt Govt Priamary School Mandawass",AJMER,26.1229658,74.37648078,,
103,24,"Govt Govt Priamary School Lassani I",AJMER,26.11514129,74.38159314,,
103,25,"Govt Govt Secondery Secondery School Delwara",AJMER,26.12458128,74.36801014,,
103,26,"Govt Govt Secondery Secondery School Delwara",AJMER,26.12458128,74.36801014,,
103,27,"Govt Govt Upper Priamary School Lasaria",AJMER,26.10137713,74.37453521,,
103,28,"Govt Upper Upper Priamary School Gadi Thoriyan",AJMER,26.09445146,74.34402246,,
103,29,"Govt Govt Upper Priamary School Balad",AJMER,26.07605841,74.3519736,,
103,37,"Shri Elak Panna Lal Digmber Digmber Jain Sec School Outside Surajpol Gate Beawar",AJMER,26.10139115,74.32363289,"Urban area",9
103,38,"Shri Elak Panna Lal Digmber Jain Sec School Outside Surajpol Gate Beawar",AJMER,26.10139115,74.32363289,"Urban area",9
104,31,"Govt Sec Sec School (south Room) Rawala ka badiya",AJMER,26.04239641,74.3682115,,
104,32,"Panchayat Ghar Ghak",AJMER,26.03291557,74.37864674,,
104,33,"Govt Upp Upp Prim Prim School ( East Room ) Ghak banola",AJMER,26.03126462,74.39171829,,
104,34,"Govt Sr Sr Sec Sec School Ghak Nadi",AJMER,26.01789758,74.40610776,,
104,35,"Govt Prim Prim School Samela ( Ghak)",AJMER,26.00565049,74.40318165,,
104,36,"Govt Prim Prim School Jhuhoraon ka badiya",AJMER,26.06895662,74.39027399,,
104,37,"Panchyat Ghar Lulwa",AJMER,26.06178265,74.40431711,,
104,38,"Govt Prim Prim School Pheetha Makana ka badiya",AJMER,26.05871449,74.41805835,,
104,39,"Govt Sec Sec Prim Prim School Noth Noth Room Naya gavn",AJMER,26.05114479,74.4332001,,
104,60,"Govt Sec School Chawandiya",AJMER,26.15875577,74.63663354,,
104,61,"Govt Govt Secondary School (east Room) Satwadiya",AJMER,26.12701879,74.62679892,,
104,62,"Govt Govt Secondary School (west Room) Satwadiya",AJMER,26.12701879,74.62679892,,
104,63,"Govt Upp Upp Prim School Sathaliya",AJMER,26.12810628,74.60787983,,
105,21,"Govt Sceondary Schoool South Part Room Goyla Goyla Goyla 21",AJMER,26.12715827,74.95146987,,
105,22,"Govt Govt Secondary School Arwad Arwad Arwad 22",AJMER,26.15889944,74.9303744,,
105,23,"Govt Govt Uper Primary School Badla Badla Badla 23",AJMER,26.1860012,74.9225617,,
105,31,"Govt Govt Primary Schoool Ganeshpura Ganeshpura Ganeshpura 31",AJMER,26.13950237,74.98585981,,
105,32,"Govt Upper Primary School Sadapur Sadapur Sadapur 32",AJMER,26.18580582,75.09133666,,
105,33,"Govt Upper Primary School Chandolai Chandolai Chandolai 33",AJMER,26.16107065,75.09601889,,
105,34,"Govt Secondary School Bidla Bidla Bidla 34",AJMER,26.14117461,75.11125412,,
105,35,"Govt Govt Upper Upper Primary School Gordhanpura Gordhanpura Gordhanpura 35",AJMER,26.09335346,75.07019,,
105,36,"Govt Upper Primary School Sameliya Sameliya Sameliya 36",AJMER,26.08133786,75.05650566,,
105,43,"Govt Upper Primary School Sanodiya Sanodiya Sanodiya 43",AJMER,26.10446539,74.91876795,,
105,44,"Govt Upper Primary School Dingariya(jadana) Dingariya(jadana) Dingariya(jadana) 44",AJMER,26.14111137,74.93499756,,
105,45,"Govt Govt Secondary School Satolav Satolav Satolav 45",AJMER,26.06388855,74.92055511,,
100,1,"Govt Govt Sec Sec School, School, New buliding left side room no 11 Makarwali ajmer",AJMER,26.53866587,74.64083067,,
100,2,"Govt Govt Sec Sec School New Building right side room no no 4 Makarwali ajmer",AJMER,26.53863239,74.64075629,,
100,5,"Govt middle school school chorasiyawas right side room, choriyawas",AJMER,26.50512995,74.6243863,"Urban area",5
100,6,"Govt middle school chorasiyawas left side room, choriyawas",AJMER,26.50505625,74.62454458,"Urban area",5
100,8,"Vrandavan public sr sec school, L K G G room no 6, makarwali road, ajmer",AJMER,26.50255157,74.63020289,"Urban area",5
100,10,"saint stephens sr sec school, room no 1, nursery block, makarwali road, ajmer",AJMER,26.50165825,74.63585518,"Urban area",5
100,13,"Bhagwan mahaveer public se sec school room no 6 panchsheel ajmer",AJMER,26.51833602,74.63605192,"Urban area",5
100,14,"govt middle school, left side room, janshala, ratidang ajmer",AJMER,26.49466604,74.61414898,"Urban area",5
100,17,"Govt Govt primary school hall, nosar ajmer",AJMER,26.48941854,74.60473378,"Urban area",5
100,18,"Govt sec school room no 1, kotra",AJMER,26.47565082,74.60349218,"Urban area",5
100,19,"Govt sec school room no 3, kotra",AJMER,26.47557713,74.60350044,"Urban area",5
100,22,"Sawan sr sec school room no 9, kotra Ajmer",AJMER,26.47736624,74.60254948,"Urban area",5
101,1,"Adarsh Girl College Ajmer, Room No 12",AJMER,26.45056567,74.63027602,"Urban area",5
101,2,"Adarsh Girl College Ajmer, North Section Room No 11",AJMER,26.45056577,74.63027612,"Urban area",5
101,6,"hans Vidhya Mandir, Malusar Road, Ajmer Room No No 1",AJMER,26.44723306,74.62877197,"Urban area",5
101,7,"hans Vidhya Mandir, Malusar Road, Ajmer Room No 2",AJMER,26.44723316,74.62877207,"Urban area",5
101,8,"Govt Govt Higher Primary School, Tramway Station Station Room 3",AJMER,26.450482,74.630269,"Urban area",5
101,9,"Govt Govt Higher Higher Primary School, Tramway Station Station Room No 5",AJMER,26.45057266,74.6303031,"Urban area",5
101,16,"Govt Rajendra Sin Sec School, Paharganj, Ajmer Room No 4",AJMER,26.44513304,74.63270035,"Urban area",5
101,17,"Govt Rajendra Sin Sec School, Paharganj, Ajmer Room No 3",AJMER,26.44520424,74.63246448,"Urban area",5
101,18,"Govt Rajendra Sin Sec School, Paharganj, Ajmer North Section Room No 6",AJMER,26.44520434,74.63270458,"Urban area",5
101,19,"Govt Govt Rajendra Sin Sin Sec Sec School, Paharganj Ajmer North Section Room No No 5",AJMER,26.44520444,74.63270468,"Urban area",5
101,20,"Sant Kanwer Ram Higher Secondary School, Ashaganj, Ajmer, Class 8 Ka Room No 3",AJMER,26.44208284,74.63347748,"Urban area",5
99,18,"Govt Govt upper Primary School, Ujoli",AJMER,26.87852365,74.87356227,,
99,19,"Govt Govt Secondary School, Bhairwai",AJMER,26.88182439,74.84280916,,
99,20,"Govt Govt Upper Primary School, Khajpura",AJMER,26.87275615,74.83978123,,
99,21,"Govt Govt secondary School, west west wing Jajota",AJMER,26.84448279,74.87086236,,
99,23,"Govt Govt Loonkaran Baheti Secondary School School south side Paner",AJMER,26.84265752,74.82720198,,
99,25,"Govt Govt Upper Primary School Manpura",AJMER,26.8466527,74.78441775,,
99,26,"Govt Govt Primary School, Jaliyo ki dhani (ramnagar)",AJMER,26.82868117,74.79994005,,
99,28,"Govt Govt upper Primary School, Dardoond",AJMER,26.81538835,74.81821711,,
99,30,"Loonkaran Baheti Govt Govt Girls Senior Secondary School west side Roopangarh",AJMER,26.79876643,74.84907122,,
99,31,"Govt Govt upper Primary School, School, east side Roopangarh",AJMER,26.79535601,74.85140987,,
99,32,"Govt Govt upper primary school, west side Roopangarh",AJMER,26.79535601,74.85140987,,
99,34,"Govt Govt Sr Sr Seccondary school school Room no no 5 5 5 Roopangarh",AJMER,26.79450498,74.84921771,,
98,133,"Govt Govt Upper Primary School ,jogiyon Ki Dhani",AJMER,26.53842069,74.90862009,,
98,134,"Govt Govt Upper Primary School ,naya Gaon",AJMER,26.57811873,74.90384883,,
98,135,"Govt Govt Secondary School ,chundri",AJMER,26.60453015,74.9388308,,
98,136,"Govt Govt Upper Primary School School ,tolamal",AJMER,26.60260251,74.92925986,,
98,137,"Govt Govt Upper Primary School School ,churli",AJMER,26.615915,74.96249123,,
98,98,"K D D Jain Higher Sec Sec School, Madanganj , Room No No 14",AJMER,26.58420398,74.859868,"Urban area",7
98,99,"K D D Jain Higher Sec Sec School, Madanganj, Room No No 5",AJMER,26.58420398,74.859868,"Urban area",7
98,100,"Govt Govt Girls Upper Primary School, Shivaji Nagar Madaganj, Room No No 02",AJMER,26.57812677,74.85924276,"Urban area",7
98,101,"Govt Govt Praveshika Sanskrit School, Shivaji Nagar Madaganj Room No No 9",AJMER,26.57988542,74.85720208,"Urban area",7
98,102,"Govt Govt Upper Primary Sanskrit School, Shivaji Nagar Madaganj Room No No 3",AJMER,26.57988542,74.85720208,"Urban area",7
98,103,"Mahatma Gandhi Dharmshala Shivaji Nagar Northern Part Room No No 7",AJMER,26.58241622,74.86119212,"Urban area",7
102,86,"Govt Sr Sr Sec School, Rajgarh Room No2",AJMER,26.30382342,74.61936212,,
102,87,"Govt Govt Primary School, Chat Sardarpura",AJMER,26.29996719,74.64735413,,
102,88,"Govt Govt Higher Secondary School, Bhawani Khera, Room No No 11",AJMER,26.2836,74.6701,,
102,89,"Govt Govt Higher Secondary School, Bhawani Khera, Room No No 13",AJMER,26.2836,74.6701,,
102,90,"Govt Govt Upper Primery School, Khapri",AJMER,26.30423583,74.66140659,,
102,145,"Major Kamlelsh govt govt Higher Secondary School,cantt area Nasirabad Room No No 1 ward no, 6",AJMER,26.29499921,74.73946824,,
102,146,"Major Kamlelsh govt govt Higher Secondary School,cantt area Nasirabad Room No No 2 ward no no 6",AJMER,26.29499921,74.73946824,,
102,147,"Major Kamlelsh govt govt Higher Secondary School,cantt area Nasirabad Room Room No No 3 ward no no 6",AJMER,26.29499921,74.73946824,,
102,148,"D A V V Upper Primery School, Nasirabad Room No No 1 ward no no 7",AJMER,26.29348077,74.73373178,,
102,149,"D A V V Upper Primery School, Nasirabad Room No No 4 ward no no 7",AJMER,26.29348077,74.73373178,,
102,150,"D A V V Upper Primery School, Nasirabad Room No No 3 ward no no 7",AJMER,26.29348077,74.73373178,,
103,39,"Govt Govt Upper Primary School School Sedria",AJMER,26.0837125,74.32767411,,
103,40,"Govt Govt Upper Primary School School Sedria",AJMER,26.0837125,74.32767411,,
103,41,"Govt Govt Upper Primary School School Indra Nagar Maduda Road, Beawar",AJMER,26.10136378,74.33718361,"Urban area",9
103,42,"Govt Govt Upper Primary School School Indra Nagar Maduda Road, Beawar",AJMER,26.10136378,74.33718361,"Urban area",9
103,43,"Govt Govt Upper Primary School School Indra Nagar Maduda Road, Beawar",AJMER,26.10136378,74.33718361,"Urban area",9
103,44,"Govt Govt Upper Primary School School Indra Nagar Maduda Road, Beawar",AJMER,26.10136378,74.33718361,"Urban area",9
103,52,"Office of The Jen (pwd) Chawani Beawar",AJMER,26.11011389,74.319169,"Urban area",9
103,53,"Govt Upper Primary School School New Mill Area Area Labour Colony, Beawar",AJMER,26.11009167,74.31313333,"Urban area",9
103,54,"Govt Govt Primary School,mill Road Opp Raj Cotton Press Beawar",AJMER,26.10590278,74.312425,"Urban area",9
103,55,"Govt Govt Primary School,mill Road Road Road Beawar",AJMER,26.10590278,74.312425,"Urban area",9
103,59,"Agrawal Marwari Panchayat Bhawan Lalan Gali Beawar",AJMER,26.1027972,74.32063611,"Urban area",9
103,60,"Agarwal Madhopuria Panchayati Bhawan Bhawan Bansi Bhawan Ajmeri Gate, Beawar",AJMER,26.10256389,74.32116388,"Urban area",9
105,46,"Govt Upper Primary School Jadana Jadana Jadana 46",AJMER,26.0613888,74.96916962,,
105,47,"Govt Govt Upper Primary School Khandra Khandra Khandra 47",AJMER,26.05444527,74.94999695,,
105,59,"Govt Govt Upper Primary School Chakva Chakva Chakva 59",AJMER,26.00880993,74.97460172,,
105,60,"Govt Upper Primary School Bhagwanpura Bhagwanpura Bhagwanpura 60",AJMER,26.02809379,74.99765108,,
105,61,"Govt Govt Primary School Miyan Miyan Miyan 61",AJMER,26.00496871,75.0007893,,
105,62,"Govt Govt Sceondary School Tajpura Tajpura Tajpura 62",AJMER,26.11198417,75.04444935,,
105,63,"Govt Govt Primary School Chhapri Chhapri Chhapri 63",AJMER,26.01474294,75.0407982,,
105,70,"Govt Govt Primary School Gopalpura Gopalpura Gopalpura 70",AJMER,25.878809,74.9744632,,
105,71,"Govt Upper Primary School Shyampura Shyampura Shyampura 71",AJMER,25.86440472,74.98903415,,
105,72,"Govt Upper Primary School Bhatolav Bhatolav Bhatolav 72",AJMER,26.05657671,75.06170235,,
105,73,"Govt Govt Upper Primary School Hingtada Hingtada Hingtada 73",AJMER,26.06327772,75.08256989,,
105,74,"Govt Secondary School Ajgara Ajgara Ajgara 74",AJMER,26.00972176,75.09666442,,
104,64,"Govt Sr Sr Sec Sec School (noth Room) Jasmola",AJMER,26.13418292,74.59153386,,
104,65,"Govt Sr Sr Sec Sec School (south Room) Jasmola",AJMER,26.13418292,74.59153386,,
104,66,"Govt Upp Upp Prim School Kanpura",AJMER,26.11660094,74.57849241,,
104,67,"Govt Sr Sr Sec Sec School (noth Room) Bagliyawas",AJMER,26.089371,74.58585977,,
104,68,"Govt Aadarsh Upper Primary School (noth Room) Kushallpura",AJMER,26.10992596,74.54798212,,
104,237,"Govt Upper Prim School Nimeda (kanai)",AJMER,25.96541999,74.95816474,,
104,238,"Govt Upper Primary School Kachriya",AJMER,25.92575161,74.93411258,,
104,194,"Govt Sec School Near Railway Station Bandanwada",AJMER,26.12246741,74.6915197,,
104,195,"Govt Central Prim School Bandanwada",AJMER,26.12683211,74.70171122,,
104,196,"Govt Govt Prim School Surajpura",AJMER,26.13441152,74.74089599,,
104,197,"Govt Sec School (westwing New Room) Kumhariya",AJMER,26.16475417,74.7426501,,
104,198,"Govt Sec School (eastwing Room) Kumhariya",AJMER,26.16475417,74.7426501,,
100,24,"Govt sec school right side, hathikhera ajmer",AJMER,26.45718161,74.58782842,"Urban area",5
100,25,"Govt sec school left side room, hathikhera ajmer",AJMER,26.45725123,74.58768757,"Urban area",5
100,20,"Samrat sr sec school room no 12, 12, kotra Ajmer",AJMER,26.47931698,74.6009414,"Urban area",5
100,26,"Govt primary school kharkheri Rail ki Dang ajmer",AJMER,26.42748079,74.54357555,,
100,28,"Govt Govt Primary school kazipura ajmer",AJMER,26.44252206,74.58810337,"Urban area",5
100,68,"Hillview Adventis sec school, room no 2 rembul road ajmer",AJMER,26.47783638,74.63859755,"Urban area",5
100,11,"saint stephens sr sec school, room no 3, nursery block, makarwali road, ajmer",AJMER,26.50158592,74.63587577,"Urban area",5
100,69,"Khawaja Model school sec school ajmer class 8 room no 1, shastri nagar ajmer",AJMER,26.47619386,74.64241749,"Urban area",5
100,74,"Exn Exn Phed lohakhan ajmer Os room",AJMER,26.48257787,74.65128412,"Urban area",5
100,75,"Exn Exn Phed lohakhan ajmer room no no 1",AJMER,26.48285117,74.65090377,"Urban area",5
100,76,"Govt sr sec school Balupura police line, room no 13 ajmer",AJMER,26.47880722,74.64955088,"Urban area",5
100,77,"Govt Govt sr sec school Balupura police line, room no 8 ajmer",AJMER,26.47897442,74.64955621,"Urban area",5
101,21,"Sant Kanwer Ram Higher Secondary School, Ashaganj, Ajmer, Class 8 Ka Room No 4",AJMER,26.44208294,74.63347758,"Urban area",5
101,22,"Sant Kanwar Ram Higher, Secondary School , Ashaganj Ajmer, Class 10 Ka Room No No 5",AJMER,26.44208284,74.63347748,"Urban area",5
101,23,"Sant Kanwar Ram Higher Secondary School Ashaganj, Ajmer Room No 28",AJMER,26.44204858,74.63330604,"Urban area",5
101,24,"Sant Kanwar Ram Higher Secondary School, Ashaganj, Ajmer Room No 29",AJMER,26.44204868,74.63330614,"Urban area",5
101,25,"Govt Govt Higher Secondary School, Bhagwan Ganj, Ajmer( North Side Ka Room)",AJMER,26.43658866,74.63114071,"Urban area",5
101,26,"Govt Govt Sindhi Higher Primary School, Ajaynager, Ajmer, Room No 3",AJMER,26.43413992,74.62952844,"Urban area",5
101,27,"Govt Govt Sindhi Higher Primary School, Ajaynager, Ajmer, Room No 4",AJMER,26.434131,74.62952854,"Urban area",5
101,34,"Bhatnagar Adarsh Vidhya Nikaten Sin Sin Sec Sec School Jawahar Ki Nadi Room No No 4",AJMER,26.41532049,74.62399083,"Urban area",5
101,35,"Govt Govt Primary School (lift Side Room) Kishanpura Last Naya Room (fakira Kheda)",AJMER,26.41532059,74.62399093,"Urban area",5
101,36,"Office Krishi Upaj Mandi Samiti(f&v) Beawer Road Ajmer",AJMER,26.41720422,74.63359175,"Urban area",5
101,37,"Office Krishi Upaj Mandi Samiti (f&v) Sabhapati Section Beawer Road, Ajmer",AJMER,26.41720432,74.63359185,"Urban area",5
98,104,"Mahatma Gandhi Dharmshala Shivaji Nagar Southern Part Room No No 19",AJMER,26.58241622,74.86119212,"Urban area",7
98,11,"Govt Upper Primary School Harmara",AJMER,26.68675376,74.9303639,,
98,12,"Govt Upper Primary School Nayagaov",AJMER,26.70694212,74.92948705,,
98,13,"Govt Girls Upper Primary School Sursura (north Side)",AJMER,26.73045701,74.87043831,,
98,14,"Govt Girl Upper Primary School Sursura (south Side)",AJMER,26.73045701,74.87043831,,
98,15,"Govt Higher Sec, School Sursura,(south Side )",AJMER,26.72948199,74.87055002,,
98,16,"Govt Heigher Sec, School Sursura,( Centre Part )",AJMER,26.72948199,74.87055002,,
98,17,"Govt Sen Sen Sec Sec School, Salemabad (north Part)",AJMER,26.71697042,74.79588286,,
98,18,"Govt Sen Sen Sec Sec School , Salemabad (south Side)",AJMER,26.71697042,74.79588286,,
98,19,"Govt Upper Primary School Nonadpura",AJMER,26.71291307,74.82008927,,
98,138,"Govt Govt Upper Primary School ,badgaon",AJMER,26.59198456,74.9514717,,
98,139,"Govt Govt Sec School, Patan",AJMER,26.60951708,74.9811663,,
102,151,"Govt Govt Upper Primery School, Sewa Mandi , Nasirabad, Western Room ward no no 7",AJMER,26.29352993,74.7359054,,
102,152,"Govt Govt Sec Sec School, Dilwara",AJMER,26.32370921,74.74758018,,
102,159,"Govt Govt Sec Sec School, Kanakheri, room no 11",AJMER,26.41392197,74.77498007,,
102,160,"Govt Govt Sec Sec School, Rampura Ahiran",AJMER,26.3896297,74.81691373,,
102,161,"Govt Govt Sec Sec School, Jilawara, Jilawara, north hall",AJMER,26.40456592,74.82550319,,
102,162,"Govt Govt Upper Primery School,bara School,bara Shrinagar",AJMER,26.44654108,74.7843052,,
102,163,"Govt Senior Secondary School, Srinagar Srinagar Srinagar Srinagar Srinagar Srinagar Srinagar Srinagar Srinagar Srinagar Srinagar Srinagar Srinagar Srinagar Srinagar Srinagar Room No 2",AJMER,26.43840169,74.77582519,,
102,164,"Govt Senior Secondary School, Srinagar Srinagar Srinagar Srinagar Srinagar Srinagar Srinagar Srinagar Srinagar Srinagar Srinagar Srinagar Srinagar Srinagar Srinagar Srinagar Room No 3",AJMER,26.43840169,74.77582519,,
102,165,"Govt Govt Govt Upper Primery School, Srinagar, Naya Hall No No 1",AJMER,26.43799493,74.77554514,,
102,166,"Govt Govt Upper Primery School, Srinagar, Naya Hall No 2",AJMER,26.43799493,74.77554514,,
102,167,"Govt Govt Upper Primery School, Leri Ka Badia , Srinagar",AJMER,26.44971224,74.73692437,,
102,168,"Govt Govt Upper Primery School, Hathipatta",AJMER,26.43041386,74.83052896,,
103,61,"Govt Upper Primary School Surajpol Gate Beawar",AJMER,26.10045721,74.3227982,"Urban area",9
103,70,"Govt Upper Primary School Bhichadali Moh Moh Beawar",AJMER,26.09761944,74.31957222,"Urban area",9
103,77,"Sant pool hr hr sec sec school school Beawa",AJMER,26.09009398,74.31566831,"Urban area",9
103,78,"Krashi Upaj Mandi Samitee Samitee Beawar",AJMER,26.0856666,74.3156277,,
103,79,"Office of Krashi Upaj Mandi Samitee Beawar",AJMER,26.0856666,74.3156277,,
103,80,"Govt Govt Upper Primary School Krishana Colony Beawar",AJMER,26.0943834,74.31197342,"Urban area",9
103,81,"Govt Govt Upper Primary School Krishana Colony Beawar",AJMER,26.0943834,74.31197342,"Urban area",9
103,82,"Govt Govt Upper Primary School Krishana Colony Beawar",AJMER,26.0943834,74.31197342,"Urban area",9
103,83,"Govt Govt Upper Primary School Krishana Colony Beawar",AJMER,26.0943834,74.31197342,"Urban area",9
103,4,"Govt upper upper Priamary School Gopalpura",AJMER,26.1800685,74.32664182,,
103,5,"Govt Govt Upper Priamary School Sarganv",AJMER,26.17023797,74.36081979,,
103,6,"Govt Govt Upper Priamary School Sarganv",AJMER,26.15551926,74.35252578,,
105,75,"Gram Seva Sahkari Samiti Godam Ajgari Ajgari Ajgari 75",AJMER,26.0,75.0,,
105,76,"Govt Upper Primary School Pratappura Pratappura Pratappura 76",AJMER,26.00791345,75.06939113,,
105,77,"Govt Upper Primary School Chandali Chandali Chandali 77",AJMER,25.98174796,75.06203326,,
105,78,"Govt Upper Primary School Gundali Gundali Gundali 78",AJMER,25.99294985,75.04021453,,
105,79,"Govt Upper Primary School Arniya Arniya Arniya 79",AJMER,25.98853847,75.02560939,,
105,80,"Govt Secondary School Rampali Rampali Rampali 80",AJMER,25.95645636,75.08240133,,
105,81,"Govt Upper Primary School Biliya Biliya Biliya 81",AJMER,25.9562657,75.0804998,,
105,82,"Govt Govt Secondary School Harpura Harpura Harpura 82",AJMER,26.15325628,75.17355516,,
105,83,"Govt Govt Primary School Kasana Kasana Kasana 83",AJMER,26.15340413,75.15185746,,
105,84,"Govt Govt Primary School Kumhariya Kumhariya Kumhariya 84",AJMER,26.11867185,75.12867604,,
105,85,"Govt Upper Primary School Sunariya Sunariya Sunariya 85",AJMER,26.11560281,75.1553137,,
105,86,"Govt Upper Primary School Piproli (hingoniya) (hingoniya) (hingoniya) 86",AJMER,26.0861141,75.14268593,,
99,33,"Govt Govt Sr Sr Seccondary school school Room no no 3 3 3 Roopangarh",AJMER,26.79450498,74.84921771,,
99,36,"Govt Govt Secondary school Nawa",AJMER,26.79100487,74.82814549,,
99,39,"Govt Govt Secondary School, Raghunathpura",AJMER,26.77697959,74.81121669,,
99,41,"Govt Govt Scondary School School Thal",AJMER,26.74103131,74.83682874,,
99,42,"Govt Govt upper Primary Primary School Seengla",AJMER,26.7382567,74.81269855,,
99,43,"Govt Govt Secondary school (room no no 1) Singara",AJMER,26.75981535,74.80428507,,
99,45,"Govt Govt Sr Sr Secondary Secondary School, north side Karkeri",AJMER,26.74985766,74.70568427,,
99,47,"Govt Govt Girls Secondary school north side Karkeri",AJMER,26.74898287,74.70616925,,
99,49,"Govt Govt upper primary school, mundalo ki dhani Parasoli",AJMER,26.74904969,74.69505632,,
99,54,"Govt Govt Secondary School, Peenglod",AJMER,26.70246299,74.80374986,,
99,56,"Govt Govt Upper Primary School Palri Pathanan",AJMER,26.69322798,74.76882519,,
99,57,"Govt Govt Senior Secondary School(west Wing), Babayacha",AJMER,26.68769561,74.73406846,,
104,205,"Govt Upper Prim School Gopalpura",AJMER,26.05453004,74.70538337,,
104,206,"Govt Sr Sec School (class Viii Viii A Room) Bhinai",AJMER,26.05464647,74.76941261,,
104,207,"Govt Sr Sec School (room of Class Viii Viii B ) Bhinai",AJMER,26.05464647,74.76941261,,
104,208,"Govt Praveshika Sanskrit School North Room No 7 Bhinai",AJMER,26.05345473,74.7695249,,
104,209,"Govt Praveshika Sanskrit School South Room Bhinai",AJMER,26.05345473,74.7695249,,
104,210,"Govt Girls Upper Prim School,southwing Room,bhinai",AJMER,26.05377217,74.77040399,,
104,217,"Govt Sec Sec School Rammaliya",AJMER,26.10043352,74.83299748,,
104,218,"Govt Prim School Piloda",AJMER,26.07862879,74.81261073,,
104,219,"Govt Upper Prim School Raghunathgarh",AJMER,26.07709763,74.85522783,,
104,220,"Govt Prim School Bubkiya",AJMER,26.06848498,74.81698601,,
104,221,"Govt Upper Prim School Badla",AJMER,26.04143473,74.85096349,,
104,4,"Govt Girls Sec Sec School North Room No No 3 Kharwa",AJMER,26.191011,74.437736,,
100,78,"Govt Govt se sec school Balupura police line, room no 9 ajmer",AJMER,26.47891134,74.64988248,"Urban area",5
100,79,"Govt sr sec school Balupura police line, north side hall ajmer",AJMER,26.47875436,74.64998259,"Urban area",5
100,80,"Govt sr sec school Balupura police line, room no 5 ajmer",AJMER,26.47867847,74.65003008,"Urban area",5
100,82,"govt govt jawahar sr sec school, room no 8 ajmer",AJMER,26.47631574,74.64336939,"Urban area",5
100,83,"govt govt jawahar sr sec school, room no 5 ajmer",AJMER,26.47608472,74.64390105,"Urban area",5
100,84,"govt govt jawahar sr sec school, east side room no 2 ajmer",AJMER,26.47624888,74.64379619,"Urban area",5
100,85,"Govt middle school police line west side room ajmer",AJMER,26.47890251,74.6494831,"Urban area",5
100,86,"Maharaja public sec school, lohakhan near shivmandir room no 6 jawahar ajmer",AJMER,26.47915944,74.64947943,"Urban area",5
100,87,"Savitri girls sr sec school, east side room no 7 ajmer",AJMER,26.47238379,74.63626953,"Urban area",5
100,88,"Savitri girls sr sec school, room no 6 ajmer",AJMER,26.47233758,74.63631225,"Urban area",5
100,34,"Govt Primary school right side Room Foysagar road Ajmer",AJMER,26.46429027,74.61590848,"Urban area",5
100,36,"ramjas public sec sec school room no 11 foysagar nagfani boraj road ajmer",AJMER,26.46067469,74.61766501,"Urban area",5
101,38,"Dayanand Bal Nikaten Sin Sec School Beawer Road, Ajmer, Room No 6",AJMER,26.42531228,74.63610622,"Urban area",5
101,39,"Dayanand Bal Nikaten Sin Sin Sec Sec School Beawer Road, Ajmer, Room No 5",AJMER,26.42528084,74.63641832,"Urban area",5
101,40,"Dayanand Bal Nikaten Sin Sin Sec Sec School Beawer Road, Ajmer, Room No 10",AJMER,26.42247358,74.6352793,"Urban area",5
101,41,"Dayanand Bal Nikaten, Beawer Road, Room No No 12",AJMER,26.42247368,74.6352794,"Urban area",5
101,42,"Dayanand Bal Nikaten , Beawer Road, South Section Room No No 7",AJMER,26.42247378,74.6352795,"Urban area",5
101,43,"Govt Govt sin sec School Ramganj, Room No No 09",AJMER,26.463203,74.2923021,,
101,51,"Shahid Avinash Maheshwari Adarsh Vidhya Nikaten Sec Sec School Bhagwan Ganj Room No No 4 Ajmer",AJMER,26.43595949,74.63378269,"Urban area",5
101,52,"Govt Govt College,beawer Road,ajmer, South Section Room No 5004",AJMER,26.44633948,74.63706354,"Urban area",5
101,53,"Govt Govt College,ajmer, Room No 3008",AJMER,26.44633958,74.63706364,"Urban area",5
101,54,"Govt Govt College, Beawer Road,ajmer, North Section Room No 3007",AJMER,26.44633968,74.63706374,"Urban area",5
101,61,"Govt Govt Higher Sec Sec School Topdara, Ajmer North Section Room No No 3",AJMER,26.46013991,74.64486404,"Urban area",5
98,140,"Govt Govt Upper Primary School , Nohariya",AJMER,26.60865057,75.01655344,,
98,141,"Govt Govt Sen Sen Sec School Nalu Left Side",AJMER,26.65153047,74.9946342,,
98,142,"Govt Govt Sen Sen Sec Sec School Nalu Right Side",AJMER,26.65153047,74.9946342,,
98,143,"Govt Govt Upper Primary School , Mundoti (narukan)",AJMER,26.64263928,75.04367664,,
98,144,"Govt Govt Upper Primary School , Kheda Karmsotan",AJMER,26.6011584,75.06963442,,
98,145,"Govt Govt Sen Sen Secondary School ,bandar Sindari Northern Part",AJMER,26.59980705,75.03768431,,
98,146,"Govt Govt Sen Sen Secondary School ,bandar Sindari Western Part",AJMER,26.59980705,75.03768431,,
98,147,"Govt Govt Upper Primary School Bandar Sindari",AJMER,26.60079154,75.03646932,,
98,148,"Govt Govt Sen Sen Secondary School Deendwada Eastern Part",AJMER,26.5600374,74.98064225,,
98,149,"Govt Govt Sen Sen Secondary School Deendwada Western Part",AJMER,26.5600374,74.98064225,,
98,150,"Govt Govt Upper Primary School Khandach",AJMER,26.54273788,75.01648374,,
98,151,"Govt Govt Upper Primary School Tihari",AJMER,26.53113032,75.04141599,,
102,169,"Govt Govt Primary School, Mohanpura",AJMER,26.44383325,74.81044893,,
102,170,"Govt Govt Sec Sec School, Pharkiya, Room No No 3",AJMER,26.44458103,74.82325635,,
102,171,"Govt Govt Primery School, Benaveri,",AJMER,26.43276018,74.86302029,,
102,172,"Govt Sr Sr Secondary School, Kanpura South Hall",AJMER,26.39100128,74.85561052,,
102,173,"Govt Govt Sr Secondary School, Kanpura Room No No 6",AJMER,26.39100128,74.85561052,,
102,174,"Govt Govt Higher Secondary School, Tehari, north Side hall",AJMER,26.39682884,74.90266602,,
102,175,"Govt Govt Higher Secondary School, Tehari, Tehari, sourthan Side hall",AJMER,26.39682884,74.90266602,,
102,176,"Govt Govt Upper Primery School, Nawab",AJMER,26.36575997,74.91913056,,
102,177,"Govt Govt Primery School, Chandsen Room No No 1",AJMER,26.35845069,74.89794735,,
102,178,"Govt Govt Primery School, Kuradi, West Hall",AJMER,26.32846035,74.87102918,,
102,179,"Govt Govt Govt Sec Sec School, Telana, Left Side Room",AJMER,26.32040321,74.84953614,,
102,180,"Govt Govt Primery School, Mandiyani",AJMER,26.362711,74.82235865,,
103,7,"Govt Govt Secondary School Beawar Khass",AJMER,26.15762599,74.32562012,,
103,8,"Govt Govt Secondary School Beawar Khass",AJMER,26.15762599,74.32562012,,
103,9,"Govt Govt Upper Priamary School Fatehgarh Salla",AJMER,26.14205387,74.29983964,,
103,10,"Govt Govt Upper Priamary School Johar Khera",AJMER,26.15350199,74.31086668,,
103,11,"Govt Govt Govt Priamary School Meria",AJMER,26.1298119,74.32866075,"Urban area",9
103,12,"Govt Govt Priamary School Makrera",AJMER,26.14101853,74.33281826,"Urban area",9
103,13,"Govt Govt Secondary School Noondri Mendratan",AJMER,26.11375078,74.30808952,,
103,14,"Govt Govt Secondary School Noondri Mendratan",AJMER,26.11375078,74.30808952,,
103,15,"Govt Govt Secondary School Noondri Mendratan",AJMER,26.11375078,74.30808952,,
103,16,"Govt Govt Secondary School Noondri Mendratan",AJMER,26.11375078,74.30808952,,
103,17,"Govt Govt Priamary School Thikrana Gujran",AJMER,26.14645809,74.36977317,,
103,18,"Govt Govt Upper Priamary School Fatehpur First",AJMER,26.14367118,74.37464011,,
105,87,"Govt Upper Primary School Bilavtiya Bilavtiya Bilavtiya 87",AJMER,26.07142788,75.14974163,,
105,88,"Govt Sr Sr Secondary School East Part Room Hingoniya Hingoniya Hingoniya 88",AJMER,26.06445531,75.127594,,
105,89,"Govt Sr Sr Secondary School West Part Room Hingoniya Hingoniya Hingoniya 89",AJMER,26.06445531,75.12759401,,
105,90,"Govt Govt Seondary School Lallai Lallai Lallai 90",AJMER,26.05449285,75.10094152,,
105,91,"Govt Upper Primary School Madanpura Madanpura Madanpura 91",AJMER,26.00383357,75.09499813,,
105,92,"Govt Upper Primary School Sapanda Sapanda Sapanda 92",AJMER,26.00383357,75.09499813,,
105,93,"Govt Primary School Juniya Juniya Juniya 93",AJMER,26.0880067,75.19042411,,
105,94,"Govt Sr Sr Secondary Secondary Secondary School South Part Room Juniya Juniya Juniya 94",AJMER,26.07981544,75.19141075,,
105,95,"Govt Girls Sr Sec Sec School Room Of Class 10 Juniya Juniya Juniya 95",AJMER,26.08620965,75.19053119,,
105,96,"Govt Girls Upper Primary School North Part Room Juniya Juniya Juniya 96",AJMER,26.07981542,75.19142075,,
105,97,"Govt Secondary School South Part Room Kanoj Kanoj Kanoj 97",AJMER,26.06318037,75.27166397,,
105,101,"Govt Govt Primary Primary Primary School Room No No 4 Devganv Devganv Devganv 101",AJMER,26.10466535,75.29780247,,
104,229,"Govt Upper Prim School Keriyakhurd",AJMER,26.04330861,74.89794182,,
104,230,"Govt Upper Prim School Raghunathpura",AJMER,26.02755039,74.94583942,,
104,231,"Govt Sr Sec School (left Side Room) Badgaon urf Surkhand",AJMER,26.01307566,74.92571947,,
104,232,"Govt Sr Sec School (right Side Room) Badgaon urf Surkhand",AJMER,26.01307566,74.92571947,,
104,241,"Govt Govt Sec School (left Side Room) Karot",AJMER,25.88718127,74.94818967,,
104,28,"Govt Sec Sec School North Room Andheri dewari",AJMER,26.09269316,74.38346117,,
104,29,"Govt Upp Upp Prim Prim School Bharkala",AJMER,26.05923834,74.37907778,,
104,30,"Govt Prim Prim School Thal ka badiya",AJMER,26.05418013,74.37241681,,
104,40,"Govt Sec Sec School South Room Naya gavn",AJMER,26.05114479,74.4332001,,
104,41,"Govt Upp Upp Prim Prim School Chodsiya",AJMER,26.07111842,74.43559346,,
104,42,"Govt Upper Upper Prim Prim School Ragpura",AJMER,26.07482309,74.46959992,,
104,43,"Govt Govt Sec Sec School Dholadanta",AJMER,26.08465217,74.45637675,,
99,58,"Govt Govt Senior Secondary School (east Wing) Babayacha",AJMER,26.68769561,74.73406846,,
99,59,"Govt Govt Upper Primary School,hansiyawas",AJMER,26.66000632,74.71667758,,
99,61,"Govt Govt Secondary school Aradka",AJMER,26.62958113,74.72718074,,
99,63,"Govt Govt Sr Sr Secondary School (hall 1),narwar",AJMER,26.60859783,74.69186392,,
99,65,"Govt Govt upper Primary School, Padampura",AJMER,26.57013618,74.63892979,,
99,66,"Govt Govt Secondary School, Room No 1 Chachiyawas",AJMER,26.56932448,74.67690749,,
99,67,"Govt Govt Secondary School, Room No No 2, Chachiyawas",AJMER,26.56932448,74.67690749,,
99,69,"Govt Govt Upper Primary school, Bhawani Khera",AJMER,26.59470668,74.69396,,
99,71,"Govt Govt Secondary school, class 6 Room, Kayampura",AJMER,26.58527377,74.72154155,,
99,72,"Govt Govt upper Primary School, Manpura",AJMER,26.6016978,74.72629274,,
99,74,"Govt Govt Secondary School, Magra",AJMER,26.62132191,74.78073344,,
99,76,"Govt Govt Senior Secondary School, (east side roomno 5) Ramner Dhani",AJMER,26.62732603,74.81214636,,
100,37,"Govt middle school janshala ghee mandi,near dhobi shamshan nagfani east side room no 1",AJMER,26.46027508,74.61762524,"Urban area",5
100,35,"ramjas public sec sec school room no 3 3 foysagar nagfani boraj road ajmer",AJMER,26.46429027,74.61590848,"Urban area",5
100,40,"Little blosam sec school branch no 2, narsinghpura, ramnagar ajmer",AJMER,26.4654801,74.60994571,"Urban area",5
100,41,"Sant Ramdas sec school ramnagar room no 5 ramnagar ajmer",AJMER,26.4656398,74.61263625,"Urban area",5
100,43,"Sant Ramdas sec school ramnagar room no 2 ramnagar ajmer",AJMER,26.46573605,74.61278382,"Urban area",5
100,44,"Govt sr sec school ramnagar (west side room) ramnagar ajmer",AJMER,26.46730872,74.61320114,"Urban area",5
100,45,"Govt sr sec school ramnagar (south side room) ramnagar ajmer",AJMER,26.46732114,74.61327284,"Urban area",5
100,46,"Govt girls sr sec school ramnagar room no 1 ajmer",AJMER,26.47049689,74.60901448,"Urban area",5
100,47,"Govt girls sr sec school ramnagar room no 2 ajmer",AJMER,26.47052623,74.60893791,"Urban area",5
100,49,"Deaf school east side room no 5, vaishali nagar, ajmer",AJMER,26.49051746,74.62519403,"Urban area",5
100,50,"Deaf school east side room no 6, vaishali nagar, ajmer",AJMER,26.49062991,74.62501991,"Urban area",5
98,152,"Govt Govt Upper Primary School , Mala",AJMER,26.45367793,75.12038297,,
98,153,"Govt Sen Sen Sen Sec Sec School Bhogadeet",AJMER,26.47320282,75.12664366,,
98,154,"Govt Govt Sec Sec School Gagunda",AJMER,26.5005196,75.11183163,,
98,155,"Govt Govt Upper Primary School , Goli",AJMER,26.46879913,75.1006951,,
98,26,"Govt Govt Sen Sen Secondary School Kuchil (western Part)",AJMER,26.65969378,74.77404792,,
98,27,"Govt Upper Primary School ,bansara Mehran",AJMER,26.67843898,74.7635885,,
98,28,"Govt Upper Primary School ,cheeta Khera Room No 2 Left Side",AJMER,26.66378569,74.79299293,,
98,29,"Govt Upper Primary School , Cheeta Khera Room No 3 Right Side",AJMER,26.66378569,74.79299293,,
98,33,"Govt Upper Primary School ,kalidungari",AJMER,26.63595948,74.85177741,"Urban area",7
98,38,"Govt Govt Sen Sen Secondary, School , Tiloniya Western Part",AJMER,26.65291571,74.936102,,
98,39,"Govt Upper Primary School , Mandawariya",AJMER,26.6035466,74.89381361,"Urban area",7
98,41,"Sarvodaya Bal Vidya Niketan Upper Primary School Sanvatsar Room No No 4",AJMER,26.59380238,74.86033839,"Urban area",7
102,181,"Govt Govt Sec Sec School, Dhal Room No No 1",AJMER,26.33380674,74.80747195,,
102,182,"Govt Govt Secondary School, Sanod, East side Room No 3",AJMER,26.28492021,74.82790623,,
102,183,"Govt Govt Secondary School, Sanod,eastern Room No No 4",AJMER,26.28492021,74.82790623,,
102,2,"Govt Sr Sr Sec School Room No 3 3 Govindgarh",AJMER,26.4536279,74.37965539,,
102,3,"Govt Govt Girls Secondary school, Govindgarh",AJMER,26.45517896,74.38129213,,
102,4,"Govt Rajeev Gandhi Primary School, Govindgarh room no no 2",AJMER,26.44401994,74.4158045,,
102,5,"Govt Govt Sec Sec School, Akhepura",AJMER,26.44401994,74.4158045,,
102,6,"Govt Govt Upper Primary School, Samarathpura",AJMER,26.4319441,74.4421411,,
102,7,"Govt Govt Govt Sec Sec School, Jaswantpura",AJMER,26.45638281,74.4388636,,
102,8,"Govt Govt Secondary School, Bhagwanpura",AJMER,26.4464319,74.46450884,,
102,9,"Govt Govt Primary School, Surajkund",AJMER,26.45501678,74.4886738,,
102,10,"Govt Sec Sec School, Motisar",AJMER,26.46402494,74.51371337,,
103,19,"Govt Govt Upper Priamary School Lakhina",AJMER,26.14349293,74.40285255,,
103,20,"Govt Govt Upper Priamary School Suhava",AJMER,26.14349293,74.40050857,,
103,21,"Govt Govt Priamary School Khirni Khera",AJMER,26.10969725,74.39667359,,
103,22,"Govt Govt Upper Priamary School Pakhriawass",AJMER,26.08700133,74.40635933,,
103,109,"Govt Upper Primary School Housing Board Beawar",AJMER,26.08609316,74.30981211,,
103,110,"Govt Govt Upper Primary School Ratanpura Sardara",AJMER,26.1123216,74.288659,,
103,111,"Govt Govt Govt Primary School Sirola",AJMER,26.105355,74.28616738,,
103,112,"Govt Govt Upper Priamary School Thikrana Mendratan",AJMER,26.09709126,74.28395755,,
103,115,"Govt Primary School Banewari",AJMER,26.08918614,74.25630761,,
103,120,"Govt Upper Primary School Govindpura",AJMER,26.09054906,74.29393682,,
103,121,"Govt Upper Primary School Ganeshpura",AJMER,25.7654364,73.97450042,,
103,122,"Govt Primary School Shivnathpura",AJMER,26.0768427,74.2902897,,
105,102,"Govt Primary School Shambhupura(shambhunagar) Shambhupura(shambhunagar) Shambhupura(shambhunagar) 102",AJMER,26.12788721,75.30327296,,
105,103,"Govt Upper Primary School Chabdiya Chabdiya Chabdiya 103",AJMER,26.04607683,75.23084052,,
105,104,"Govt Secondary School Lasadiya Lasadiya Lasadiya 104",AJMER,26.04807236,75.20704332,,
105,105,"Govt Primary School Akalsinha Akalsinha Akalsinha 105",AJMER,26.02575196,75.2061946,,
105,106,"Govt Govt Primary School Dhunvaliya Dhunvaliya Dhunvaliya 106",AJMER,26.04153654,75.18585091,,
105,107,"Govt Upper Primary School Room No No 6 Nayki Nayki Nayki 107",AJMER,26.0212207,75.17772376,,
105,108,"Govt Upper Primary School Jagdishpura Kekri Kekri Kekri 108",AJMER,25.9720331,75.14738053,,
105,109,"Govt Upper Primary School East Part Room Krishna Nagar Kekri Kekri Kekri 109",AJMER,25.98195145,75.1344949,,
105,110,"Govt Upper Primary School West Part Room Krishna Nagar Kekri Kekri Kekri 110",AJMER,25.98195145,75.1344949,,
105,111,"Govt Govt Sr Sr Secondary School South West Part Room No No 12 Kekri Kekri Kekri 111",AJMER,25.97416863,75.15182874,,
105,112,"Govt Pilet Upper Primary School Kekri Kekri Kekri 112",AJMER,25.97436931,75.149861,,
105,113,"Govt Sr Sr Secondary School Room No No 17 Kekri Kekri Kekri 113",AJMER,25.9741687,75.15182879,,
101,62,"Govt Govt Higher Sec Sec School Topdara, Ajmer North Section Room No No 4",AJMER,26.46013101,74.64486414,"Urban area",5
101,63,"Govt Govt Higher Sec Sec School Topdara, Ajmer North Section Room No No 1",AJMER,26.46013991,74.6427045,"Urban area",5
101,64,"Govt Govt Higher Sec Sec School Topdara, Ajmer Ajmer Room No No 6",AJMER,26.46092285,74.64486404,"Urban area",5
101,65,"Govt Govt Higher Sec Sec School Topdara, Ajmer Ajmer Room No No 5",AJMER,26.46092295,74.64486414,"Urban area",5
101,66,"Govt Govt Primary School, Dadabari Ajmer Room No 63",AJMER,26.45704238,74.64660678,"Urban area",5
101,67,"Govt Govt Primary School, Dadabari Ajmer Room No 65",AJMER,26.45704248,74.64660688,"Urban area",5
101,68,"Govt Govt Girls Higher Primary School Shri Nagar Road, Ajmer South Section Class 8 B",AJMER,26.45365689,74.64827152,"Urban area",5
101,74,"Govt Govt Girls Higher Primary School Gulabbari (naka Madar) Ajmer South Section",AJMER,26.44841936,74.66469934,"Urban area",5
101,75,"Govt Govt Mahatma Gandhi Higher Sec Sec School Shri Nagar Road, Ajmer Room No No 1",AJMER,26.44975951,74.64229508,"Urban area",5
101,76,"Sant Marry Convent Girl Higher Seco Seco School Alwer Gate Ajmer, Class 12 Commerse ka Section",AJMER,26.44728581,74.64318613,"Urban area",5
101,82,"Govt Govt Girls Higher Sec Sec School Gulabbari Ajmer North Section Room No No 6",AJMER,26.44915364,74.66038218,"Urban area",5
104,44,"Govt Prim Prim School Janjagran Kendra Bhawani Kheda",AJMER,26.09211741,74.47779179,,
104,45,"Govt Prim Prim School Bassi",AJMER,26.11020307,74.47767145,,
104,46,"Govt Prim Prim School Karwai",AJMER,26.1192427,74.46080775,,
104,54,"Govt Upp Upp Prim School Motipura",AJMER,26.17907391,74.56258652,,
104,55,"Govt Upp Upp Prim School Nasoon",AJMER,26.1935723,74.59875326,,
104,101,"Govt sr sr Sec School Ramgarh",AJMER,25.9707089,74.45183692,,
104,102,"Govt sr sr Sec School School Ramgarh",AJMER,25.9707089,74.45183692,,
104,103,"Govt Upp Upp Prim School Shivnagar",AJMER,25.95043401,74.45096203,,
104,104,"Govt Govt Prim School Aakrol",AJMER,25.94289494,74.42326277,,
104,105,"Govt Prim School Salarmala",AJMER,26.15571349,74.56221343,,
104,106,"Govt Sec School (south room) New room Hanutiya",AJMER,25.95862749,74.50188526,,
104,107,"Govt Sec School (north room) New room Hanutiya",AJMER,25.95862749,74.50188526,,
104,108,"Govt Upper Prim School Bherukheda",AJMER,25.95009021,74.53314306,,
99,78,"Govt Govt Secondary School (room no 1) Oontra",AJMER,26.58238322,74.7715688,,
99,81,"Govt Govt Secondary School, (room no 2) Gegal",AJMER,26.55553002,74.76560816,,
99,83,"Govt Govt Primary School, Aakhri",AJMER,26.55238239,74.79735982,,
99,84,"Govt Govt Primary School, Danta",AJMER,26.5382673,74.80858747,,
99,87,"Govt Govt Secondary School, (room No 1), Bubani",AJMER,26.52105238,74.80465145,,
99,89,"Govt Govt Secondary School, Room No 6, Muhami",AJMER,26.50963511,74.77702187,,
99,90,"Govt Govt Upper Primary School, New Building, Nolakha",AJMER,26.48480929,74.78583925,,
99,91,"Govt Govt Secondary Secondary School, Gudiawas",AJMER,26.4863242,74.76725373,,
99,92,"Govt Govt upper Primary School , Gudda",AJMER,26.46886573,74.75351445,,
99,95,"Govt Govt Secondary School, East side, Room No No 2, Badliya",AJMER,26.43158823,74.72608395,"Urban area",5
99,96,"govt govt primary school, mallali ki dhaani (left side room), badliya",AJMER,26.44517122,74.71833855,"Urban area",5
99,97,"Govt Govt Secondary School, (room No No 1) Palra",AJMER,26.41584781,74.71108956,"Urban area",5
100,51,"Deaf school east side room no 9, vaishali nagar, ajmer",AJMER,26.49070094,74.62510069,"Urban area",5
100,52,"Deaf school east side room no 18, vaishali nagar, ajmer",AJMER,26.49069956,74.62498855,"Urban area",5
100,54,"Office rajasthan Housing board account section room no 5, vaishali nagar, ajmer",AJMER,26.48736828,74.62860729,"Urban area",5
100,100,"govt oswal jain sr sec school room no 1 ajmer",AJMER,26.46171526,74.62936911,"Urban area",5
100,16,"govt middle school right side room no 5, janshala, ratidang ajmer",AJMER,26.49536356,74.61453798,"Urban area",5
100,21,"Samrat sr sec school room no 15, 15, kotra Ajmer",AJMER,26.47960563,74.60108144,"Urban area",5
100,23,"Govt primary school school room no 3, ramnagar near cineworld ajmer",AJMER,26.471069,74.6080768,"Urban area",5
100,96,"Phed office nal godam, ganj ajmer",AJMER,26.46519002,74.63151064,"Urban area",5
100,101,"govt oswal jain sr sec school room no 5 ajmer",AJMER,26.46168424,74.629243,"Urban area",5
100,104,"govt sindhi sr sec school classroom 8 out of delhi gate (south side room) ajmer",AJMER,26.4632047,74.62778512,"Urban area",5
100,105,"govt sindhi sr sec school hall classroom 6 C out of delhi gate ajmer",AJMER,26.46318808,74.62779897,"Urban area",5
98,42,"Govt Secondary, School , Sanvatsar Eastern Part",AJMER,26.59743398,74.86229248,"Urban area",7
98,51,"Govt Vishvakarma Upper Primary School, Gandhi Nagar ,southern Part",AJMER,26.59575203,74.85222531,"Urban area",7
98,52,"Govt Sen Sen Secondary, School Gandhi Nagar Room No 4",AJMER,26.59011024,74.85214784,"Urban area",7
98,53,"Govt Sen Sen Secondary, School Gandhi Nagar Room No 5",AJMER,26.59011024,74.85214784,"Urban area",7
98,54,"Govt Govt Sen Sen Secondary, School Gandhi Nagar Room No 6",AJMER,26.59011024,74.85214784,"Urban area",7
98,55,"Govt Govt Sen Sen Secondary, School Gandhi Nagar Room No 10",AJMER,26.59011024,74.85214784,"Urban area",7
98,56,"Govt Govt Sen Sen Secondary, School Gandhi Nagar Room No 11",AJMER,26.59011024,74.85214784,"Urban area",7
98,57,"Rameshwari Devi Kishan Lal Senior Sec Sec School Maliyo Ki Dhani Kishangarh Gandhi Nagar Room No 2",AJMER,26.58876922,74.84768052,"Urban area",7
98,58,"Govt Govt Upper Primary School Maliyo Ki Dhani,gandhinagar Room No 1",AJMER,26.58619197,74.84401839,"Urban area",7
98,59,"Govt Govt Upper Primary School Maliyo Ki Dhani, Gandhinagar Room No 5",AJMER,26.58619197,74.84401839,"Urban area",7
98,60,"Jons Middle School Brij Vihar Colony Maliyo Ki Dhani Room No 2",AJMER,26.58795714,74.83993864,"Urban area",7
103,123,"Govt Govt Primary School Sovnia",AJMER,26.07350612,74.2641051,,
103,124,"Govt Upper Primary School School Malipura",AJMER,26.06933833,74.25954227,,
103,125,"Govt Hr Secondary School Durgawas",AJMER,26.0578394,74.25513608,,
103,126,"Govt Govt Upper Primary School School Khera Devnarayan",AJMER,26.06732165,74.24154961,,
103,127,"Govt Primary School Lalpura Dhanar",AJMER,26.03830248,74.250392,,
103,128,"Govt Upper Primary School Dholadata I",AJMER,26.04455219,74.26117737,,
103,129,"Govt Primary School Bhairu Khera",AJMER,26.03947714,74.26460751,,
103,130,"Govt Upper Primary School Khejrala",AJMER,26.06331263,74.28215362,,
103,131,"Govt Upper Primary School Nundri Maldev",AJMER,26.06443814,74.31304822,,
103,132,"Govt Govt Upper Priamary School Malpura",AJMER,26.05729208,74.33538245,,
103,133,"Govt Govt Priamary School Bhawani Khera",AJMER,26.04163819,74.33802953,,
103,134,"Govt Govt Seconaday School Mandeda",AJMER,26.03247391,74.336192,,
102,11,"Govt Govt Shiksha karmi Primary School, School, Rawato ki dhani, Sawaipura",AJMER,26.439756,74.48821964,,
102,12,"Govt Govt Primary School, (picholiya), Gadhi goojran",AJMER,26.40213515,74.48415455,,
102,13,"Govt Govt Sr Sec School,room no 5 Picholiya",AJMER,26.41557753,74.46881282,,
102,14,"14.govt sr sec school picholiya hall Govt Sr Sec School Picholiya Hall",AJMER,26.41557753,74.46881282,,
102,15,"Govt Govt upper primary School, Sethan",AJMER,26.41891135,74.40080922,,
102,16,"Govt Govt Upper Primary School, Fatehpura",AJMER,26.41233935,74.40323967,,
102,17,"Govt Govt Sec Sec School, (room no 1) Rampura Dabla",AJMER,26.39377402,74.41820308,,
102,18,"Govt Govt Secondary School, (right side side Room) Budhwara",AJMER,26.38302715,74.43567981,,
102,19,"Govt Govt Secondary School, (left side side Room) Budhwara",AJMER,26.38302715,74.43567981,,
102,20,"Govt Govt Sec Sec School, nuriyawas",AJMER,26.37245915,74.47009267,,
102,21,"Govt upper Primary School, Sarsari",AJMER,26.31911161,74.4338558,,
102,22,"Govt Govt Govt Sec Sec School, (right side room,) Kalesara",AJMER,26.34412784,74.41941365,,
105,114,"Govt Sr Sr Secondary School Room No No 20 Kekri Kekri Kekri 114",AJMER,25.9741686,75.15182875,,
105,115,"Govt Upper Primary School Gujarwada North Part Room Kekri Kekri Kekri 115",AJMER,25.98085696,75.15445488,,
105,116,"Govt Upper Primary School Gujarwada North Part Room Kekri Kekri Kekri 116",AJMER,25.98085699,75.15445487,,
105,117,"Krishi Upaj Mandi Samiti Suparviser Room Kekri Kekri Kekri 117",AJMER,25.98138889,75.15836944,,
105,118,"Krishi Upaj Mandi Samiti Rest Room No No 4 Kekr Kekr Kekr 118",AJMER,25.98132778,75.15828889,,
105,119,"Govt Govt Upper Primary School Gujarwada East Part Room Kekri Kekri Kekri 119",AJMER,25.98085699,75.15445487,,
105,120,"Govt Govt Primary School Bheel Basti Room No 1 Kekri Kekri Kekri 120",AJMER,25.97461346,75.15803316,,
105,121,"Govt Govt Primary School Bheel Basti Room No 3 Kekri Kekri Kekri 121",AJMER,25.97461346,75.15803316,,
105,156,"Govt Hr Hr Secondary School East Part Room No 6 Baghera Baghera Baghera 156",AJMER,26.02128189,75.31213292,,
105,157,"Govt Hr Hr Secondary School Room No 1 Baghera Baghera Baghera 157",AJMER,26.02128189,75.31213292,,
105,158,"Govt Primary School Salari Gate Room No No 1 Baghera Baghera Baghera 158",AJMER,26.01688548,75.13709306,,
98,61,"Jons Middle School Brij Vihar Colony Maliyo Ki Dhani Room No 3",AJMER,26.58795714,74.83993864,"Urban area",7
98,62,"Jons Middle School Brij Vihar Colony Maliyo Ki Dhani Room No 4",AJMER,26.58795714,74.83993864,"Urban area",7
98,63,"Jagadamba Balvidya Mandir Upper Primary School Gandhi Nagar Room No 2",AJMER,26.58650148,74.84633781,"Urban area",7
98,64,"Jagadamba Balvidya Mandir Upper Primary School Gandhi Nagar Room No 4",AJMER,26.58650148,74.84633781,"Urban area",7
98,65,"Govt Govt Secondary School Farasiya , Room No 1",AJMER,26.571011,74.82582411,"Urban area",7
98,66,"Govt Govt Secondary School Farasiya , North Part, Room No 2",AJMER,26.571011,74.82582411,"Urban area",7
98,67,"Govt Govt Sindhi Upper Primary School Housing Board Madanganj West Part Room No 7",AJMER,26.57242242,74.83585331,"Urban area",7
98,68,"Govt Govt Sindhi Upper Primary School Housing Board Madanganj West Part Room No 5",AJMER,26.57242242,74.83585331,"Urban area",7
98,69,"Govt Govt Sindhi Upper Primary School Housing Board Madanganj West Part Room No 6",AJMER,26.57242242,74.83585331,"Urban area",7
98,70,"Govt Govt Upper Primary School, Krishanapuri, Room No 1",AJMER,26.57879918,74.83777228,"Urban area",7
98,71,"Govt Govt Upper Primary School, Krishanapuri, Room No 2",AJMER,26.57879918,74.83777228,"Urban area",7
101,83,"All Sant Primary School Dholabhata Road Ajmer, Class 1 Room",AJMER,26.43653055,74.65653768,"Urban area",5
101,84,"Govt Govt Higher Sec Sec School (boys) Gulabbari Ajmer Room No 2",AJMER,26.44585837,74.6644139,"Urban area",5
101,88,"Govt Govt Naveen Higher Primary School Gulabbari, Kalyanipura Road (aanand Hills) Room No 2",AJMER,26.44125989,74.66611486,"Urban area",5
101,89,"Govt Govt Naveen Higher Primary School Gulabbari, Kalyanipura Road (aanand Hills) Room No 1",AJMER,26.4413055,74.66611687,"Urban area",5
101,90,"Bharat Higher Primary School Jagdambha Colony, New Basti, Naya Ghar Gulabbari,ajmer, Room No 2",AJMER,26.44132378,74.66359455,"Urban area",5
101,91,"Bharat Higher Primary School Jagdambha Colony, New Basti, Naya Ghar Gulabbari,ajmer, Room No 6",AJMER,26.44132388,74.66359465,"Urban area",5
101,92,"Bharat Higher Primary School Jagdambha Colony, New Basti, Naya Ghar Gulabbari,ajmer, Room No 1",AJMER,26.44132398,74.66359475,"Urban area",5
101,93,"Govt Govt Higher Sec Sec School Kalyanipura Ajmer Naya Hall Room No 6",AJMER,26.43584336,74.67321103,"Urban area",5
101,94,"Govt Govt Higher Sec Sec School Kalyanipura Ajmer Naya Hall Room No 5",AJMER,26.43584346,74.67321113,"Urban area",5
101,95,"Sant Josaph Bal Niketan Primary School Ajmer, Infent Class Room",AJMER,26.43657986,74.66591511,"Urban area",5
104,109,"Govt Varishth Upadhyay Sanskrit Collage North Room No 7 Jaliya ll",AJMER,25.74448194,74.56279444,,
104,110,"Gvt Sr Upadhya Sanskrit College (westwing) Jaliya I",AJMER,25.74448194,74.56279444,,
104,111,"Govt Sr Sec School (southwing) Jaliya Ii",AJMER,25.92257099,74.56023236,,
104,112,"Govt Sr Sec School (westhwing) Jaliya Ii",AJMER,25.92257099,74.56023236,,
104,113,"Govt Govt Sec School (eastwing) Kaniya",AJMER,25.87083333,74.55333333,,
104,114,"Govt Govt Sec School (westwing) Kaniya",AJMER,25.87083333,74.55333333,,
104,115,"Govt Upper Prim School Khutiya",AJMER,25.9545705,74.56857355,,
104,116,"Govt Sec School Lodiyana",AJMER,25.97919183,74.57990266,,
104,117,"Govt Upper Prim School Jaisinghpura",AJMER,25.99436643,74.55724774,,
104,118,"Govt Sec School Lordi",AJMER,26.02056753,74.56217636,,
104,189,"Govt Upper Prim School Ruppura",AJMER,26.14586889,74.66967835,,
104,190,"Govt Upper Prim School Amargarh",AJMER,26.14584375,74.65889355,,
100,107,"sameer shubh office (mamiyo ka nohra) room no 11, lakhan kothri ajmer",AJMER,26.4602598,74.62713075,"Urban area",5
100,109,"govt oswal jain sec school, east side room, lakhan kothri ajmer",AJMER,26.45957657,74.6265336,"Urban area",5
100,111,"shri nanak jain middle school west side room lakhan kothri ajmer",AJMER,26.45849567,74.62772715,"Urban area",5
100,116,"madarsa gharib nawaz room no 1 (do darwaza wala) andarkot ajmer",AJMER,26.45466856,74.62574678,"Urban area",5
100,117,"govt sec school badbaw room no 1 andarkot ajmer",AJMER,26.45293771,74.6212832,"Urban area",5
100,119,"govt sec school badbaw room no 3 andarkot ajmer",AJMER,26.45278721,74.62138658,"Urban area",5
100,120,"govt middle school taragarh ajmer",AJMER,26.44332793,74.61780753,"Urban area",5
100,122,"imambara khadim mohalla south side room (school old building)",AJMER,26.45470471,74.62934178,"Urban area",5
100,48,"Sundon middle school mahavir colony, ajmer",AJMER,26.46735573,74.61835711,"Urban area",5
100,55,"Office rajasthan Housing board vaishali nagar, ajmer(aawasan Prakosth)",AJMER,26.48734766,74.62866002,"Urban area",5
100,60,"Charan vidyapeeth makarwali road, ajmer new room no 2 makarwali road ajmer",AJMER,26.4953594,74.63044343,"Urban area",5
99,98,"Govt Govt Secondary School, Nakanadar, Room No No 6 Kiranipura",AJMER,26.45266511,74.67558865,"Urban area",5
99,99,"Govt Govt Secondary School, Nakamadar, Room No No 8, Kiranipura",AJMER,26.45266511,74.67558865,"Urban area",5
99,100,"Sanskar Public School, Shakti Nagar,ajmer",AJMER,26.44998103,74.67059087,"Urban area",5
99,101,"Govt Govt Secondary School,nakamadar, Room No No 9, Kiranipura",AJMER,26.45266511,74.67558865,"Urban area",5
99,102,"Govt Govt Secondary School,nakamadar, Room No No 5 Kiranipura",AJMER,26.45266511,74.67558865,"Urban area",5
99,103,"Govt Govt Secondary school, (room no no 1) Madarpura",AJMER,26.47430489,74.68219977,"Urban area",5
99,106,"Govt Govt Secondary School, (room no no 2) Rasoolpura",AJMER,26.48786797,74.69946104,,
99,108,"Govt Sr Sr secondary School Room No 15 Bhudol",AJMER,26.49056317,74.75365885,,
99,109,"Govt Govt Sr Sr Secondary School,rom No No 17,bhudol",AJMER,26.49056317,74.75365885,,
99,111,"Govt Govt Sr Sr Secondary School, Room No No 6, Gagwana",AJMER,26.53004067,74.72982554,,
99,113,"Govt Govt girls Secondary school Room No No 1 Gagwana",AJMER,26.52984104,74.72930405,,
99,79,"Govt Govt Senior Secondary School, Oontra Room No No 3",AJMER,26.58238322,74.7715688,,
105,159,"Govt Primary School Salari Gate Room No No 3 Baghera Baghera Baghera 159",AJMER,26.01688548,75.13709306,,
105,160,"Govt Upper Primary Primary School New Building Baghera Baghera Baghera 160",AJMER,26.001386,75.29210577,,
105,161,"Govt Secondary School West Part Room No 1 Salari Salari Salari 161",AJMER,25.9630143,75.28506859,,
105,162,"Govt Upper Primary Primary School Tasvariya Tasvariya Tasvariya 162",AJMER,25.95523917,75.25117923,,
105,163,"Govt Govt Secondary School South Part Room No 2 Para Para Para 163",AJMER,25.88071936,75.18898242,,
105,164,"Govt Govt Secondary School South Part Room No 5 Para Para Para 164",AJMER,25.88071936,75.18898242,,
105,165,"Govt Upper Primary School North Part Room Kali Talai Ka Khera Khera Khera 165",AJMER,25.85746668,75.17493324,,
105,166,"Govt Govt Upper Primary School New Building Nimod Nimod Nimod 166",AJMER,25.91072511,75.142262,,
105,167,"Govt Govt Upper Primary School New Building Veerwada Veerwada Veerwada 167",AJMER,25.89740039,75.128858,,
105,168,"Govt Upper Primary Primary School Pharkiya Pharkiya Pharkiya 168",AJMER,25.87473985,75.14307727,,
105,169,"Govt Secondary School Bharai Bharai Bharai 169",AJMER,25.87982766,75.10710795,,
99,80,"Govt Govt Upper Upper Primary School, Chandiyawas",AJMER,26.5524663,74.75322551,,
99,115,"Govt Govt Secondary School (room No No 6) Ghooghra",AJMER,26.50386811,74.69122054,"Urban area",5
99,117,"Govt Govt Secondary School, (right side room) Kayar",AJMER,26.53572113,74.68628692,,
99,119,"Govt Govt Primary School, (old Building) Hokaran Khurd",AJMER,26.54551063,74.60695264,"Urban area",5
99,121,"Govt Govt Upper Primary School, Kawalai",AJMER,26.59540123,74.58651506,,
99,122,"Govt Govt Upper Primary School, Gudha",AJMER,26.60690998,74.58853276,,
99,123,"Govt Govt Sr Sr Secondary School, (west wingroom No No 12) Kadel",AJMER,26.57589061,74.57158308,,
99,124,"Govt Sr Sr Sec Sec School (east Wing Room No No 20) Kadel",AJMER,26.57589061,74.57158308,,
99,126,"Govt Govt Upper Upper Primary School, Rewat",AJMER,26.56948394,74.56100364,,
99,127,"Govt Upper Primary School, (roomno (roomno 3) Doongariya Khurd",AJMER,26.54893914,74.54822172,,
99,129,"Govt Govt Secondary School Room No No 2, Devnagar",AJMER,26.53203045,74.56652646,,
99,131,"Govt Govt Primary Devra (banseli)",AJMER,26.50606473,74.54394384,,
103,135,"Govt Govt Upper Priamary School Bayla",AJMER,26.03946312,74.35018589,,
103,136,"Govt Govt Upper Priamary School Atitmand",AJMER,26.02998878,74.32600176,,
103,137,"Govt Govt Upper Priamary School Atitmand",AJMER,26.02998878,74.32600176,,
103,138,"Govt Govt Priamary School Singhadia",AJMER,26.05086948,74.30978864,,
103,139,"Govt Govt Priamary School School Bhojpura",AJMER,26.06731711,74.29404619,,
103,140,"Govt Govt Hr Hr Secondary School Narbadkhera",AJMER,26.05150026,74.29089223,,
103,141,"Govt Govt Hr Hr Secondary School Narbadkhera",AJMER,26.05150026,74.29089223,,
103,142,"Govt Govt Upper Priamary School Kalikankar",AJMER,26.03463681,74.24350901,,
103,149,"Govt Hr Secondary School Kotra",AJMER,26.02446104,74.21313331,,
103,150,"Govt Hr Secondary School Kotra",AJMER,26.02446104,74.21313331,,
103,162,"Govt Upper Primary School Devkhera",AJMER,25.95346884,74.28195224,,
103,163,"Govt Upper Primary School Shivnagari",AJMER,25.94329992,74.27978683,,
101,117,"Maliyan Higher Primary School Meyo Link Road, Bhajan Ganj Ajmer Room No 5",AJMER,26.43473323,74.64704604,"Urban area",5
101,118,"Maliyan Higher Primary School Meyo Link Road, Bhajan Ganj Ajmer Principal Ka Room",AJMER,26.43473333,74.64704614,"Urban area",5
101,119,"Maliyan Higher Primary School Meyo Link Road, Bhajan Ganj Ajmer East Section Room No 4",AJMER,26.43473343,74.64704624,"Urban area",5
101,120,"Maliyan Higher Primary School Meyo Link Road, Bhajan Ganj Room No 2",AJMER,26.43473353,74.64704634,"Urban area",5
101,121,"Govt Govt Girls Primary School Nagra Jo Bhajan Ganj Mai Chalti Hai Sidhi Ke Pass Wala Room",AJMER,26.4347787,74.6490309,"Urban area",5
101,144,"Ragukul Defance School, Balupura Road, Adarsh Nager Ajmer, Computer Lab",AJMER,26.42470956,74.65155379,"Urban area",5
101,122,"Chetna Sikshan Sansthan Sec Sec School, Gali No 3, Bihari Ganj, Primary Section Room No 2",AJMER,26.42983418,74.65042109,"Urban area",5
101,123,"Chetana Sikshan Sansthan Sec Sec School, Gali No,3 Bihari Ganj, Primary Section Room No 4",AJMER,26.42988084,74.65045541,"Urban area",5
101,124,"Chetana Sikshan Sansthan Sec Sec School, Gali No,3 Bihari Ganj, Primary Section Room No 2",AJMER,26.42988094,74.65045551,"Urban area",5
101,125,"Govt Govt Higher Primary School Dhannadi, Ajmer Samne Wala Room",AJMER,26.43181603,74.65601009,"Urban area",5
98,72,"Govt Govt Upper Primary School, Krishanapuri, Room No 3",AJMER,26.57879918,74.83777228,"Urban area",7
98,73,"Yadav Panchayat Bhawan Madanganj",AJMER,26.58446943,74.85024045,"Urban area",7
98,74,"Agrasen Bhawan Madanganj, Nourth Part",AJMER,26.58585861,74.85239,"Urban area",7
98,75,"Agrasen Bhawan Madanganj, South Part",AJMER,26.58585861,74.85239,"Urban area",7
98,76,"Adarsh Vidya Mandir Sec Sec School Madanganj",AJMER,26.58840434,74.85272247,"Urban area",7
98,77,"R S E B Office, Madanganj",AJMER,26.5853514,74.8511042,"Urban area",7
98,78,"K D D Jain Mahila Mahavidhyalya, Madanganj Middle Part",AJMER,26.58817112,74.85822481,"Urban area",7
98,79,"K D D Jain Mahila Mahavidhyalya, Madanganj East Part",AJMER,26.58817112,74.85822481,"Urban area",7
98,80,"Govt Govt Upper Primary School School Chainpuriya Left Sied",AJMER,26.58602699,74.86841201,"Urban area",7
98,81,"Govt Govt Upper Primary School Chainpuriya Right Side",AJMER,26.58602699,74.86841201,"Urban area",7
98,82,"Agarwal Kanya Sen Sen Sec Sec Shool, Madanganj",AJMER,26.58653168,74.85803741,"Urban area",7
98,83,"Govt Govt Shardul Sen Sen Sec Sec School Madanganj Northern Part",AJMER,26.58658261,74.85482371,"Urban area",7
104,191,"Govt Sr Sec School (northwing Room) Bandanwada",AJMER,26.13099213,74.70481167,,
104,192,"Govt Sr Sec School (southwing Room) Bandanwada",AJMER,26.13099213,74.70481167,,
104,193,"Govt Girls Sec School Bandanwada",AJMER,26.13119151,74.70517129,,
104,199,"Govt Upper Prim School kitap",AJMER,26.14540618,74.75976027,,
104,200,"Govt Upper Prim School Sedriya",AJMER,26.10738873,74.7581978,,
104,201,"Govt Sec School Chhachhundra",AJMER,26.09811137,74.73541574,,
104,202,"Govt Primary School Khedi(govlia)",AJMER,26.09121165,74.68541179,,
104,203,"Govt Upper Prim School Vishrambadi,govliya",AJMER,26.07362179,74.67721014,,
104,204,"Govt Sec School Karanti",AJMER,26.06237188,74.69859549,,
104,211,"Prim Prim School North wing Room Bhinai",AJMER,26.05377217,74.77040399,,
104,212,"Govt Upper Prim School Sargaon",AJMER,26.07234948,74.74029285,,
104,213,"Govt Upper Prim School Udaigarhkheda",AJMER,26.07656922,74.77420904,,
104,214,"Govt Sec School Dhantol",AJMER,26.10035462,74.78683428,,
100,64,"Brightland sr sec school christian ganj ajmer (hall)",AJMER,26.47912763,74.63288924,"Urban area",5
100,70,"Taramani sr sec school, L K G G room, Shastri nagar ajmer",AJMER,26.48348087,74.64556014,"Urban area",5
100,81,"Govt middle school (naya bara) shastri nagar ajmer",AJMER,26.47695771,74.64696473,"Urban area",5
100,91,"Savitri girls sr sec school, west side room no 11 ajmer",AJMER,26.47233901,74.63662479,"Urban area",5
100,97,"govt acharya sanskrit college, balbhatt section, ganj ajmer",AJMER,26.46409766,74.62966772,"Urban area",5
100,98,"govt acharya sanskrit college, west side hall, ganj ajmer",AJMER,26.4638975,74.6293456,"Urban area",5
100,102,"govt sindhi sr sec school classroom 7 out of delhi gate (north side room) ajmer",AJMER,26.46320718,74.62775101,"Urban area",5
100,103,"govt sindhi sr sec school classroom 10 out of delhi gate (south side room) ajmer",AJMER,26.46336505,74.62773304,"Urban area",5
100,106,"sameer shubh office (mamiyo ka nohra) room no 12, lakhan kothri ajmer",AJMER,26.45997101,74.62712846,"Urban area",5
100,108,"sameer shubh office (mamiyo ka nohra) east side room lakhan kothri ajmer",AJMER,26.4601993,74.62729106,"Urban area",5
100,110,"shri nanak jain middle school room no 1 lakhan kothri ajmer",AJMER,26.45856299,74.62731458,"Urban area",5
102,23,"Govt Govt Sec Sec School,( left side room) Kalesara",AJMER,26.34412784,74.41941365,,
102,24,"Govt Sr Sr Sec School Room 12 12 Pisangan",AJMER,26.38960134,74.38131119,,
102,25,"Govt Sr Sr Sec School (new Room 13 ) Peesangan",AJMER,26.38960134,74.38131119,,
102,26,"Govt Sr Sr Sec School (new Room 15 ) Peesangan",AJMER,26.38960134,74.38131119,,
102,27,"Govt Sr Sr Sec School (new Room 16 ) Peesangan",AJMER,26.38960134,74.38131119,,
102,28,"Govt Jawahar Primary School, School, room no no 7, Peesangan",AJMER,26.39070559,74.3819369,,
102,29,"Govt Jawahar Primary School, School, room no no 6, Peesangan",AJMER,26.39070559,74.3819369,,
102,30,"Govt Govt Kendriya Gandhi Primary school, Peesangan",AJMER,26.39520694,74.38098055,,
102,31,"Govt Indira Gandhi Girls Upper Primary School, School, Western Room No 1, Peesangan",AJMER,26.39230239,74.38162764,,
102,32,"Govt Indira Gandhi Girls Upper Primary School, School, southern Room no 2, Peesangan",AJMER,26.39230239,74.38162764,,
102,33,"Govt Upper Upper Primary School, Reechhmaliya",AJMER,26.42039431,74.30549724,,
102,34,"Govt Govt Sec Sec School, south side room,pagara",AJMER,26.37912272,74.33588699,,
101,126,"Govt Govt Higher Primary School Jonsganj Ajmer West Section",AJMER,26.43127175,74.64391669,"Urban area",5
101,127,"All Sant Higher Sec, School Beawer Road, Ajmer Room No 1",AJMER,26.43127185,74.64391679,"Urban area",5
101,128,"Devnarayan Shiksha Niketan Sec Sec School Narsinghpura Jons Ganj, Ajmer, Room No 3",AJMER,26.43166983,74.64128874,"Urban area",5
101,129,"Govt Govt Girls Primary School Subhash Nagar (gaddi Maliyan Mai Chalti Hai) Class 4 Ka Room",AJMER,26.42327626,74.64568619,"Urban area",5
101,130,"Sarvodaya Public School Near Railway Line, Gaddi Maliyan, Room No 2",AJMER,26.42457314,74.64232832,"Urban area",5
101,131,"Sarvodaya Public School Near Railway Line, Gaddi Maliyan, Room No 3",AJMER,26.42457324,74.64232842,"Urban area",5
101,132,"Chankaya Vidhya Mandir Higher Primary School Jonsganj, Ajmer, North Side Room",AJMER,26.43155452,74.64315023,"Urban area",5
101,133,"Chankaya Vidhya Mandir Higher Primary School Jonsganj, Ajmer, South Side Room",AJMER,26.43155462,74.64315033,"Urban area",5
101,134,"Govt Govt Higher Primary School (room No No 1) Subhash Nagar Ajmer",AJMER,26.41839424,74.63601415,"Urban area",5
101,135,"Govt Govt Higher Primary School (room No No 5) Subhash Nagar Ajmer",AJMER,26.41839444,74.63601435,"Urban area",5
101,136,"Govt Govt Higher Primary School (room No No 6) Subhash Nagar Ajmer",AJMER,26.41839454,74.63601445,"Urban area",5
105,187,"Govt Upper Primary School Alambu Alambu Alambu 187",AJMER,25.80989121,75.0246413,,
105,188,"Govt Govt Hr Hr Secondary School East Part Room No 7 Dhundhary Dhundhary Dhundhary 188",AJMER,25.8594665,75.24127559,,
105,189,"Govt Govt Hr Hr Secondary School West Part Room No 3 Dhundhary Dhundhary Dhundhary 189",AJMER,25.8594665,75.24127559,,
105,190,"Govt Girls Upper Primary School Room No 1 Dhundhary Dhundhary Dhundhary 190",AJMER,25.85877207,75.24077517,,
105,191,"Govt Secondary School Tankawas Tankawas Tankawas 191",AJMER,25.8383491,75.23902748,,
105,192,"Govt Govt Uppper Primary School Devkhery Devkhery Devkhery 192",AJMER,25.8359269,75.25100663,,
105,193,"Govt Govt Uppper Primary School Bhandawas Bhandawas Bhandawas 193",AJMER,25.81868824,75.21150157,,
105,194,"Govt Upper Primary Primary School Rajpura Rajpura Rajpura 194",AJMER,25.79066689,75.21222985,,
105,195,"Govt Secondary Secondary School East Part Room Bajta Bajta Bajta 195",AJMER,25.84133843,75.2839481,,
105,196,"Govt Govt Primary School Room No No 1 Bajta Bajta Bajta 196",AJMER,25.8411262,75.28626267,,
105,197,"Govt Govt Primary School Room No No 3 Bajta Bajta Bajta 197",AJMER,25.8411262,75.28626267,,
105,198,"Govt Primary School Room No No 2 Kalera Kanwarji Kanwarji Kanwarji 198",AJMER,25.80998359,75.307447,,
103,164,"Govt Upper Primary School School Sangarwas",AJMER,25.95020232,74.26084843,,
103,165,"Govt Upper Primary School Jetgarh Bamnia",AJMER,25.98147087,74.25724637,,
103,166,"Govt Upper Primary School Naharpura",AJMER,25.98815459,74.24024015,,
103,167,"Govt Secondary School Sarvina",AJMER,25.98988426,74.25334701,,
103,173,"Govt Hr Secondary School Dewata",AJMER,25.95914127,74.23133725,,
103,174,"Govt Secondery School Anakar",AJMER,25.93924062,74.26618978,,
103,175,"Govt Upper Primary School Hathankhera",AJMER,25.93801423,74.23851487,,
103,176,"Govt Higher Secondary School Barkochara",AJMER,25.90113757,74.22990651,,
103,177,"Govt Primary School Paloona",AJMER,25.88808397,74.24768975,,
103,182,"Govt Upper Primary School Chilia Bad",AJMER,25.95425756,74.2064594,,
103,183,"Govt Primary School Biakhera",AJMER,25.98388181,74.20626061,,
103,184,"Govt Govt Upper Primary School Kundal",AJMER,26.00082945,74.1755322,,
100,121,"imambara khadim mohalla east side room no 1 (school old building)",AJMER,26.4551526,74.62946634,"Urban area",5
100,123,"nazim dargah kutchery office room no 68 dargah ajmer",AJMER,26.45686952,74.62863903,"Urban area",5
100,67,"Hillview Adventis sec school, room no 1 rembul road ajmer",AJMER,26.47741269,74.63866007,"Urban area",5
100,3,"Govt Govt Middle school old room, lohagal ajmer",AJMER,26.50619252,74.6550686,"Urban area",5
100,4,"Govt Govt Middle school new room lohagal ajmer",AJMER,26.50630925,74.65503073,"Urban area",5
100,90,"Khawaja model sec school ajmer room no 6 shastri nagar ajmer",AJMER,26.47620133,74.64242879,"Urban area",5
100,7,"Vrandavan public sr sec school, L K G G room no 1, 1, makarwali road, ajmer",AJMER,26.50257252,74.63025607,"Urban area",5
100,9,"saint stephens sr sec school, room no 2, nursery block, makarwali road, ajmer",AJMER,26.50160189,74.63582036,"Urban area",5
100,93,"Chairman Avvnl jaipur road room no 1 ajmer",AJMER,26.46411055,74.63598757,"Urban area",5
100,94,"govt model girls sr sec school, sundar vilas ajmer room no 3 nazarbag",AJMER,26.46541589,74.63483677,"Urban area",5
100,12,"Govt Govt girls Middle School Janta colony, Room No No 6 Panchsheel Ajmer",AJMER,26.51007352,74.63494569,"Urban area",5
100,95,"govt model girls sr sec school,sundar vilas ajmer room no 1 nazarbag",AJMER,26.46546621,74.63486659,"Urban area",5
102,35,"Govt Govt upper primary School, School, devnagar",AJMER,26.53203045,74.56652646,,
102,36,"Govt Primary School, Ramnagar",AJMER,26.37912272,74.33588698,,
102,37,"Govt Govt Upper Primary School, Kaisarpura",AJMER,26.33736902,74.3197618,,
102,38,"Govt Govt Sec Sec Sec School, Mewariya",AJMER,26.34901248,74.34013782,,
102,39,"Govt Govt Upper Primary School, Nad",AJMER,26.35338528,74.38540259,,
102,40,"Govt Govt Sec Sec School, Bhatsoori",AJMER,26.32875577,74.37540254,,
102,41,"Govt Upper Primary School, Bakhtawarpura",AJMER,26.31982648,74.34714635,,
102,42,"Govt Govt Upper Primary School, Jetgarh",AJMER,26.30030832,74.32052921,,
102,43,"Govt Sr Sr Secondary School, south side room no 1, Karnos",AJMER,26.28586188,74.28524636,,
102,44,"Govt Govt Upper Primary School, Ratangarh",AJMER,26.28805455,74.26354763,,
102,45,"Govt Govt Primary School, doulatpura",AJMER,26.31624698,74.28934801,,
102,46,"Govt Sr Sr Secondary School, North side room no 2, Karnos",AJMER,26.28586188,74.28524636,,
105,199,"Govt Primary School Napakhera Urph Girwarpura School Room No 1 Sawar Sawar Sawar 199",AJMER,25.76697512,75.30667791,,
105,200,"Govt Govt Secondary School Napakhera Urph Gairverpura Gairverpura Gairverpura 200",AJMER,25.76672279,75.3064379,,
105,201,"Govt Upper Primary School Shiksha Karmi Nimera(sawar)om Sawar Sawar Sawar 201",AJMER,25.7509921,75.28890802,,
105,202,"Govtsecondary School North Part Room Ghatiyali Ghatiyali Ghatiyali 202",AJMER,25.78819295,75.26687499,,
105,170,"Govt Upper Primary Primary School Sakriya Sakriya Sakriya 170",AJMER,25.83591528,75.12857185,,
105,171,"Govt Govt Primary School Room No No 1 Gulganv Gulganv Gulganv 171",AJMER,25.82820615,75.19180248,,
105,172,"Govt Govt Primary School Room No No 4 Gulganv Gulganv Gulganv 172",AJMER,25.82820615,75.19180248,,
105,173,"Govt Hr Hr Secondary School West North Part Room No 5 Pranhera Pranhera Pranhera 173",AJMER,25.89508286,75.07213995,,
105,174,"Govt Govt Primary School North Part Roo Pranhera Pranhera Pranhera 174",AJMER,25.89532253,75.0723229,,
105,175,"Govt Primary School South Part Room Pranhera Pranhera Pranhera 175",AJMER,25.89532253,75.0723229,,
105,8,"Govt Govt Primary School Shokli Shokli Shokli 8",AJMER,26.19133741,74.86560969,,
101,137,"Sarswati Bal Mandir Sec Sec School,subhash Nager (right Side Room) Ajmer",AJMER,26.43120152,74.63752843,"Urban area",5
101,138,"Sarswati Bal Mandir Sec Sec School,subhash Nager (lift Side Room) Ajmer",AJMER,26.43120172,74.63752863,"Urban area",5
101,139,"Govt Govt Higher Primary School (room No 4) Khanpura",AJMER,26.40773757,74.63567027,"Urban area",5
101,140,"Govt Govt Higher Primary School (room No 2) Khanpura",AJMER,26.40773777,74.63567047,"Urban area",5
101,141,"Govt Govt Higher Primary School (room No 1) Khanpura",AJMER,26.40773787,74.63567057,"Urban area",5
101,142,"Govt Govt Higher Primary School (principal Ke pass Wala Room ) Khanpura",AJMER,26.40773777,74.63567087,"Urban area",5
101,143,"Ragukul Defance School, Balupura Road, Adarsh Nager Ajmer, Tecnology Lab",AJMER,26.42470946,74.65155369,"Urban area",5
101,148,"Govt Govt Primary School, Gurjar Basti, Adarsh Nagar, Ajmer (main Section)",AJMER,26.43137308,74.63398764,"Urban area",5
101,149,"Govt Govt Sin Sin Higher Sec Sec Blind School Ajmer (east Section)",AJMER,26.42004884,74.65571134,"Urban area",5
101,150,"Govt Govt Sin Sin Higher Sec Sec Blind School Ajmer Class 12 Ka Room",AJMER,26.4199001,74.65584201,"Urban area",5
101,151,"Govt Govt Sin Sin Higher Sec Sec Blind School Ajmer, Big Musical Room",AJMER,26.4199002,74.65584211,"Urban area",5
100,39,"Govt middle school janshala ghee mandi,near dhobi shamshan nagfani north side class 7 room",AJMER,26.46022205,74.61760444,"Urban area",5
100,42,"Sant Ramdas sec school ramnagar room no 6 ramnagar ajmer",AJMER,26.46568777,74.61269935,"Urban area",5
100,73,"Exn Exn Phed lohakhan ajmer room opposite of channel no no 3",AJMER,26.48308599,74.6513301,"Urban area",5
100,71,"Join dr dr Animal husbandry department, room no 6 shastri nagar ajmer",AJMER,26.4836685,74.64798607,"Urban area",5
100,92,"Chairman Avvnl jaipur road room no 3 ajmer",AJMER,26.46407192,74.63610494,"Urban area",5
100,11,"saint stephens sr sec school, room no 9, Lkg C, makarwali road, ajmer",AJMER,26.50158592,74.63587577,"Urban area",5
100,21,"Samrat sr sec school room no 9, 9, kotra ajmer",AJMER,26.47960563,74.60108144,"Urban area",5
100,37,"Govt middle school janshala ghee mandi,near dhobi shamshan nagfani east side room no 2",AJMER,26.46027508,74.61762524,"Urban area",5
100,9,"saint stephens sr sec school, room no 10, nursery block Lkg D, makarwali road, ajmer",AJMER,26.50160189,74.63582036,"Urban area",5
100,19,"Govt sec school room no 4, kotra Ajmer",AJMER,26.47557713,74.60350044,"Urban area",5
100,22,"Sawan sr sec school room no 10, kotra ajmer",AJMER,26.47736624,74.60254948,"Urban area",5
98,84,"Govt Govt Upper Primary School Azad Nagar, Room No 1 Madanganj",AJMER,26.58265924,74.85024938,"Urban area",7
98,85,"Govt Govt Upper Primary School Azad Nagar, Room No 4 Madanganj",AJMER,26.58265924,74.85024938,"Urban area",7
98,86,"Lunkaran Baheti Govt Govt Upper Primary School Rajaredi ,north East Side Room No No 2 Madanganj",AJMER,26.57179631,74.8410757,"Urban area",7
98,87,"Lunkaran Baheti Govt Govt Upper Primary School Rajaredi ,north East Side, Room No 4 Madanganj",AJMER,26.57179631,74.8410757,"Urban area",7
98,88,"Lunkaran Baheti Govt Govt Upper Primary School Rajaredi South Side Room No No 9 9 Madanganj",AJMER,26.57179631,74.8410757,"Urban area",7
98,89,"Lunkaran Baheti Govt Govt Upper Primary School Rajaredi South Side Room No No 10 Madanganj",AJMER,26.57179631,74.8410757,"Urban area",7
98,43,"Pandit Deendayal Upa Upa Govt Govt Girls Upper Primary School Sanvatsar",AJMER,26.59745559,74.86055787,"Urban area",7
98,179,"Govt Govt Sen Sen Secondary School Barna Eastern Part",AJMER,26.51508947,74.92441579,,
98,180,"Govt Govt Sen Sen Secondary School Barna Western Part",AJMER,26.51508947,74.92441579,,
98,181,"Govt Govt Primary School, Gordhanpura",AJMER,26.49212482,74.90386028,,
98,182,"Govt Govt Upper Primary School, Udaipur Khurd",AJMER,26.5137644,74.85670184,,
104,215,"Govt Sec Sec School Heerapura",AJMER,26.08409942,74.79819298,,
104,216,"Govt Upper Prim School Gurjarwada",AJMER,26.08452251,74.7847931,,
104,224,"Govt Sec School Sobadi",AJMER,26.02376339,74.78620329,,
104,119,"Govt Sec School Doulatpura I",AJMER,26.00020672,74.45132039,,
104,120,"Govt Upper Pri School Bhagwanpura",AJMER,26.0020368,74.62585578,,
104,121,"Govt Sr Sec School Sathana (northwing)",AJMER,25.981111,74.6282,,
104,127,"Govt Sr Sec School (northwing) Baral Ii",AJMER,25.91695278,74.62729298,,
104,128,"Govt Sr Sec School (southwing) Baral Ii",AJMER,25.91695278,74.62729298,,
104,129,"Govt Govt Pri Pri School (southwing) Baral Ii",AJMER,25.91670579,74.62605561,,
104,130,"Govt Girls Upper Primary School Opposite Krishi Upaj Mandi North Room No No 2 Vijainagar",AJMER,25.9265937,74.64777373,,
104,131,"Shri Pragya Public School Opposite Mahaveer Bhavan Bijainagar Play Ground",AJMER,25.92780493,74.6372948,,
104,137,"Govt Narayan Upper Prim School Pipli Chouraya Vijaynagar",AJMER,25.92915667,74.64715696,,
103,185,"Govt Govt Upper Primary Primary School,puvadia ( Nai Kalla)",AJMER,25.98078896,74.16530245,,
103,186,"Govt Govt Upper Primary School Nai Khurd",AJMER,25.97942251,74.17105626,,
103,194,"Govt Primary School Jalia Ii waspitha",AJMER,25.91982186,74.17615642,,
103,195,"Govt Upper Primary School Jalia Ii Wasrupa",AJMER,25.92990365,74.18502351,,
103,196,"Govt Govt Secondery School Rawatmal",AJMER,25.9060389,74.16753645,,
103,197,"Govt Govt Secondery School Surajpura",AJMER,25.91181451,74.17804915,,
103,198,"Govt Upper Primary School School Bihar Ratanpura",AJMER,25.91639188,74.1989151,,
103,199,"Govt Govt Hr Hr Secondary School Lotiyana",AJMER,25.9034468,74.18009385,,
103,200,"Govt Govt Upper Primary School Soniyana",AJMER,25.88244014,74.19546107,,
103,201,"Govt Priamary School Soniyana Chora",AJMER,25.8919125,74.19391945,,
103,210,"Govt Priamary School Kheria (dandola)",AJMER,25.87555989,74.13887499,,
103,211,"Govt Govt Upper Priamary School Kala Danta (amarpura ka Majra)",AJMER,25.83431253,74.06427252,,
105,9,"Govt Govt Girls Upper Primary School North Part Room Sarana Sarana Sarana 9",AJMER,26.18333244,74.88749694,,
105,214,"Govt Secondary School South Part Room No No 9 Bisundani Bisundani Bisundani 214",AJMER,25.73481497,75.1554914,,
105,215,"Govt Upper Primary School Kushayata Kushayata Kushayata 215",AJMER,25.72650201,75.18327483,,
105,216,"Govt Upper Primary School Motalav Motalav Motalav 216",AJMER,25.71649925,75.20176085,,
105,217,"Govt Primary School Laxmipura Laxmipura Laxmipura 217",AJMER,25.72322849,75.23098123,,
105,218,"Govt Upper Primary Primary Primary School Pratappura Pratappura Pratappura 218",AJMER,25.70579834,75.25899608,,
105,219,"Govt Upper Primary Primary Primary School Rainagar Rainagar Rainagar 219",AJMER,25.74234522,75.25793862,,
105,220,"Govt Primary Primary Primary School Jeetapura Jeetapura Jeetapura 220",AJMER,25.76630137,75.25321353,,
105,221,"Govt Secondary Secondary Secondary School Cheetiwas Cheetiwas Cheetiwas 221",AJMER,25.69794415,75.24202551,,
105,222,"Govt Secondary School North Part Aaloli Aaloli Aaloli 222",AJMER,25.80627222,75.13559281,,
105,223,"Govt Primary Primary Primary School Room No No 1 Aaloli Aaloli Aaloli 223",AJMER,25.80764606,75.13422766,,
105,224,"Govt Hr Hr Secondary Secondary School North Part Room Sadara Sadara Sadara 224",AJMER,25.80582118,75.17714181,,
102,47,"Govt Govt Upper Upper Primary School, Shivpura",AJMER,26.27318939,74.31012128,,
102,48,"Govt Govt Govt Primary School, Dhuwariya",AJMER,26.28536267,74.32960078,,
102,49,"Govt Govt New Primary School, Right side room,no 1 Nagelav",AJMER,26.28786365,74.40102338,,
102,50,"Govt Govt Primary School, left side room, Nagelav",AJMER,26.28786365,74.40102338,,
102,51,"Govt Govt Adarsh upper primary School, Alipura Room No 1",AJMER,26.27454314,74.40044078,,
102,52,"Govt Govt Adarsh upper primary School, Alipura Room No 2",AJMER,26.27454314,74.40044078,,
102,53,"Govt Govt Secondary School, Gola Room No 1",AJMER,26.23510398,74.39411545,,
102,54,"Govt Govt Secondary School, Gola , Room No No 2",AJMER,26.23510398,74.39411545,,
102,55,"Govt Govt Sec Sec School, Prithviraj Khera, Right Side Room",AJMER,26.22041516,74.40973812,,
102,56,"Govt Primery School, Nayagaon",AJMER,26.27709476,74.6153329,,
102,57,"Govt Govt Upper Primery School, Titardi",AJMER,26.2536269,74.42358929,,
102,58,"Govt Govt Upper primery School, Room No 9 Rudlai,",AJMER,26.20187586,74.46456146,,
101,152,"Govt Govt Girls Higher Sec Sec School Adarsh Nagar, Ajmer (new hall) Room No 2",AJMER,26.42076288,74.65171074,"Urban area",5
101,153,"Vaidik Higher Sec, School (class 10 A Ka Room No 1) Ajmer (pravatpura)",AJMER,26.40826162,74.65720299,"Urban area",5
101,154,"Vaidik Higher Sec, School (class 10 B Ka Room No 2) Ajmer (pravatpura)",AJMER,26.40826172,74.65720309,"Urban area",5
101,155,"Vaidik Higher Sec, School (class 8 Ka Room ) Ajmer (pravatpura)",AJMER,26.40826182,74.65720319,"Urban area",5
101,44,"Govt Govt Sin Sin Sec Sec School Ramganj Ajmer Room No No 10",AJMER,26.4632031,74.2923022,,
101,45,"Govt Govt Girls Higher Sec Sec School, Ramganj Room No 14",AJMER,26.43022134,74.63603199,"Urban area",5
101,46,"Govt Govt Girls Higher Sec Sec School, Ramganj Room No 12",AJMER,26.43022144,74.63603109,"Urban area",5
101,47,"Govt Govt Girls Higher Sec Sec School, Ramganj Room No 15",AJMER,26.43022154,74.63603119,"Urban area",5
101,48,"S M B B Sec School, Ramganj,ajmer,east Section Room No 2",AJMER,26.43336609,74.63656888,"Urban area",5
101,49,"S M B B Sec Sec School Ramganj, Ajmer, South Section Room No 6",AJMER,26.43336619,74.63656898,"Urban area",5
101,50,"Shahid Avinash Maheshwari Adarsh Vidhya Nikaten Sec Sec School Bhagwan Ganj Room No No 3 Ajmer",AJMER,26.43595939,74.63378259,"Urban area",5
100,15,"govt middle school room no 10, janshala, ratidang ajmer",AJMER,26.49535702,74.61468508,"Urban area",5
100,117,"govt sec school badbaw room no 4 andarkot ajmer",AJMER,26.45293771,74.6212832,"Urban area",5
100,27,"Govt sec sec school ajaysar room no 3 new block ajmer",AJMER,26.42080268,74.56694238,,
100,53,"Govt Govt primary school anasagar housing board janta colony, vaishali nagar, ajmer",AJMER,26.49246034,74.62801674,"Urban area",5
100,61,"Giriraj public school, laxmibai room shantipura, ajmer",AJMER,26.48421299,74.63162537,"Urban area",5
100,72,"D D D poultri training center shastri nagar ajmer training hall",AJMER,26.48371645,74.6479865,"Urban area",5
100,125,"govt girls sr sec school holidara kahar mohalla near paldiwal bhawan room no 2",AJMER,26.45938839,74.62926562,"Urban area",5
100,126,"gulabkanwar oswal public sec school hall with head master room, dhanmandi ajmer",AJMER,26.46069444,74.62824437,"Urban area",5
100,130,"shri digambar jain bhagya mateshwari school, khazana gali nursery room no 2 ajmer",AJMER,26.45856472,74.63070262,"Urban area",5
100,56,"Charan vidyapeeth east side makarwali road, ajmer first class room no 7",AJMER,26.49529082,74.63042687,"Urban area",5
100,57,"Gurunanak sr sec school, vaishali nagar ajmer room no 5",AJMER,26.49310658,74.63100485,"Urban area",5
98,183,"Govt Govt Upper Primary School,godiyana",AJMER,26.48642417,74.86623785,,
98,184,"Govt Govt Sen Sen Secondary School Tikawada Room No 9",AJMER,26.4655138,74.84946832,,
98,185,"Govt Sen Sen Secondary School,tikawada, Room No 4",AJMER,26.4655138,74.84946832,,
98,186,"Govt Govt Upper Primary School,bhuvada Nayabhawan",AJMER,26.46297782,74.8793064,,
98,187,"Govt Secondary School, Kadha",AJMER,26.46887997,74.91234694,,
98,188,"Govt Govt Upper Primary School, Mundolao",AJMER,26.43579671,74.89875188,,
98,189,"Govt Govt Secondary School, Devpuri",AJMER,26.5064323,75.05109154,,
98,190,"Govt Sen Sen Secondary School, Dadiya, Room No 1",AJMER,26.41857446,74.97038719,,
98,191,"Govt Govt Sen Sen Secondary School, Dadiya Room No 2",AJMER,26.41857446,74.97038719,,
98,192,"Govt Govt Upper Primary School, Dadiya",AJMER,26.42781888,75.09530407,,
98,193,"Govt Govt Upper Primary School, Jhadol, Room No 2",AJMER,26.29756494,74.98914091,,
98,194,"Govt Govt Upper Primary School, Kheda Gopalpura",AJMER,26.3924548,74.8735071,,
104,138,"Govt Sec School Sathana Bazar Vijaynagar",AJMER,25.93112178,74.64947792,,
104,139,"Govt Primary School Indra Nagar Vijainagar",AJMER,25.93859879,74.64221526,,
104,140,"Govt Girls Sr Sec School Vijaynagar",AJMER,25.93265542,74.64888418,,
104,141,"Sarswati Upper Sec School Vijaynagar",AJMER,25.93193769,74.65081368,,
104,142,"Govt Upper Prim School Chausla Vijaynagar",AJMER,25.93327664,74.65564319,,
104,143,"Govt Upper Primary School Chosla Opposite Sikhrani Road Room No 6 Vijainagar",AJMER,25.93327664,74.65564319,,
104,144,"Samudaik Bhawan Taron ka Kheda,(back of Police Station) Vijaynagar",AJMER,25.93005644,74.65330579,,
104,145,"Govt Upper Pri School (eastwing) Rajnagar Vijaynagar",AJMER,25.92584253,74.65457634,,
104,146,"Govt Upper Prim School (souhtwing) Rajnagar,vijaynagar",AJMER,25.92584253,74.65457634,,
104,147,"Govt Upper Primary School West Room No No 3 Rajnagar Vijainagar",AJMER,25.92584253,74.65457634,,
104,148,"Govt Prim School Indragarh",AJMER,25.95585775,74.64342164,,
104,149,"Govt Sr Sec School Shikhrani (southwing)",AJMER,25.96410368,74.68297359,,
103,212,"Govt Govt Secondary School Khormal",AJMER,25.82794358,74.04847928,,
103,213,"Govt Govt Upper Priamary School Rupnagar Arnali",AJMER,25.80880932,74.04692641,,
103,214,"Govt Govt Secondary School Paldi",AJMER,25.79605099,74.0720638,,
103,215,"Govt Govt Upper Priamary School Bala Charat",AJMER,25.7716943,74.08275408,,
103,216,"Govt Govt Secondery School Banjari",AJMER,25.77581179,74.03531295,,
103,217,"Govt Govt Upper Priamary School Been",AJMER,25.77333388,74.02390475,,
103,218,"Govt Govt Upper Priamary School Mewasa",AJMER,25.78345262,74.04519438,,
103,219,"Govt Govt Hr Hr Sec Sec School Barakhera",AJMER,25.79293719,74.02939949,,
103,220,"Govt Govt Hr Hr Sec Sec School Barakhera",AJMER,25.79293719,74.02939949,,
103,221,"Govt Govt Secondery School Bamanheda",AJMER,25.8167952,74.02171318,,
103,222,"Govt Govt Upper Priamary School Gaffa",AJMER,25.84175643,74.00904545,,
103,223,"Govt Upper Priamary School Laburi",AJMER,25.78823297,74.01331062,,
99,132,"Govt Govt Upper Primary School, Nedaliya",AJMER,26.51075247,74.57976338,,
99,134,"Govt Govt Primary School, Leela Seori",AJMER,26.4986901,74.58922996,"Urban area",5
99,135,"Govt Govt Primary School,nala First Jamni Kund Road, Pushkar",AJMER,26.48372769,74.56743012,,
99,136,"Govt Kendriya upper Primary School (west wing Room No No 1) Pushkar",AJMER,26.49227124,74.55343047,,
99,138,"Govt Govt Kendriya Upper Primary School (in Middle Roomno Roomno 4) Pushkar",AJMER,26.49227124,74.55343047,,
99,140,"Govt Govt Sr Sr Secondary School (west wing Room No No 18) Pushkar",AJMER,26.49293846,74.55602678,,
99,146,"Govt Govt Senior Secondary school, (south wing Room No No 11) Ganahera",AJMER,26.49571161,74.53931865,,
99,147,"Govt Govt Senior Secondary School (south wing Room No No 12) Ganahera",AJMER,26.49571161,74.53931865,,
99,149,"Govt Govt Upper Primary School, Chawandiya",AJMER,26.50447371,74.5321988,,
99,150,"Govt Govt Secondary School (hall), Tilora",AJMER,26.52708197,74.53206704,,
99,151,"Govt Govt Secondary School (room No No 12) Tilora",AJMER,26.52708197,74.53206704,,
99,152,"Govt Govt Secondary School, (liberary room), Kishanpura",AJMER,26.4936382,74.49237628,,
102,59,"Govt Govt Secondary School, Amargarh, Amargarh, Amargarh, Amargarh, Amargarh, Amargarh, Amargarh, Amargarh, Amargarh, Amargarh, Amargarh, Amargarh, Amargarh, Amargarh, Room No 2",AJMER,26.21649394,74.49180295,,
102,60,"Govt Govt Primery School, Raimala",AJMER,26.20997117,74.53059954,,
102,61,"Govt Govt Primery School, Pabuthan",AJMER,26.2243226,74.49185904,,
102,62,"Govt Govt Higher Secondary School, Leri, Northside Room No 6",AJMER,26.22488973,74.52570428,,
102,63,"Govt Govt Higher Secondary School, Leri, Southside Room No 11",AJMER,26.22488973,74.52570428,,
102,64,"Govt Sr Sr Sec Sec Sec School, Lamana",AJMER,26.23544338,74.48080747,,
102,65,"Govt Govt Higher Secondary School, Jethana South Side Room No No 2",AJMER,26.28194383,74.4732389,,
102,66,"Govt Govt Higher Secondary Secondary School, Jethana, North Side, Room No No 3",AJMER,26.28194383,74.4732389,,
102,67,"Govt Govt Girls Upper Primery School, Jethana, last room estern side of gate",AJMER,26.28312332,74.46987818,,
102,68,"Govt Govt Upper Primery School, Samala",AJMER,26.26753552,74.44278897,,
102,69,"Govt Govt Upper Primary School, Lyali Khera",AJMER,26.318988,74.46274167,,
102,70,"Govt Govt Primary School, Dantra Dantra room no no 1",AJMER,26.33937639,74.4701332,,
105,225,"Govt Hr Hr Secondary Secondary School South Part Room Sadara Sadara Sadara 225",AJMER,25.80582118,75.17714181,,
105,226,"Govt Upper Primary School Sadari Sadari Sadari 226",AJMER,25.78703218,75.18234042,,
105,227,"Govt Govt Primary School North Part Room Mehrukalan Mehrukalan Mehrukalan 227",AJMER,25.76810331,75.14357746,,
105,212,"Govt Girls Upper Primary School Sawar Sawar Sawar 212",AJMER,25.75822239,75.217896,,
105,213,"Govt Varishath Upadhyay Sanskrit School South Part Room Sawar Sawar Sawar 213",AJMER,25.75870787,75.22523621,,
105,228,"Govt Govt Hr Hr Secondary School North Part Room Mehrukalan Mehrukalan Mehrukalan 228",AJMER,25.76817879,75.14025663,,
105,229,"Govt Upper Primary School Nayaganv Mali Mali Mali 229",AJMER,25.77058813,75.1751647,,
105,230,"Govt Govt Girls Upper Primary School Mehrukalan Mehrukalan Mehrukalan 230",AJMER,25.76769956,75.14091426,,
105,231,"Govt Govt Primary School Balapura Balapura Balapura 231",AJMER,25.77330845,75.10783991,,
105,232,"Govt Govt Upper Primary School North Part Room Aamli Aamli Aamli 232",AJMER,25.75637866,75.12800744,,
105,233,"Govt Govt Upper Primary School Gothda Gothda Gothda 233",AJMER,25.77478338,75.09012868,,
105,234,"Govt Govt Primary School Mehrukhurd Mehrukhurd Mehrukhurd 234",AJMER,25.75420953,75.14898528,,
102,71,"Govt Govt Primary School, Dantra Dantra room no no 2",AJMER,26.33937639,74.4701332,,
102,72,"Govt Govt primery School, Nathuthalla New New Room",AJMER,26.36299257,74.49908225,,
102,73,"Govt Govt Sec Sec Sec School, Dodiyana",AJMER,26.33148079,74.4914422,,
102,101,"Govt Govt Primary School, Pachmata",AJMER,26.26325292,74.61880349,,
102,102,"Govt Govt Govt upper primary School, Chainpura",AJMER,26.29127359,74.65174782,,
102,103,"Govt Govt upper primary School, Nayagaon",AJMER,26.27709476,74.6153329,,
102,104,"Govt Govt Sec Sec School, Bheempura",AJMER,26.26214675,74.57533451,,
102,105,"Govt Govt Upper Primery School, Ansari,",AJMER,26.2398927,74.5584943,,
102,106,"Govt Govt Upper Primery School, Banewara, Room No No 2",AJMER,26.23148944,74.609476,,
102,107,"Govt Govt Upper Primery School, Ajba Ka Baria",AJMER,26.23937746,74.64275118,,
102,108,"Govt Govt Higher Secondary School, Bhagsuri Room No 1 New Hall",AJMER,26.21704165,74.64400067,,
102,109,"Govt Govt Higher Secondary School, Bhagsuri Room No 9, New Hall",AJMER,26.21704165,74.64400067,,
105,235,"Govt Govt Secondary School East Part Room Gordha Gordha Gordha 235",AJMER,25.71771584,75.12291199,,
105,236,"Govt Govt Secondary School North Part Room Gordha Gordha Gordha 236",AJMER,25.71771584,75.12291199,,
105,237,"Govt Govt Secondary School North Part Room Piplaj Piplaj Piplaj 237",AJMER,25.75390619,75.08929525,,
105,238,"Govt Govt Secondary School South Part Room Piplaj Piplaj Piplaj 238",AJMER,25.75390619,75.08929525,,
105,176,"Govt Secondary School Bhimrawas Bhimrawas Bhimrawas 176",AJMER,25.8619752,75.03192795,,
105,177,"Govt Upper Primary School Kachriya Kachriya Kachriya 177",AJMER,25.84585556,75.05543056,,
105,178,"Govt Senior Secondary Secondary School East Part Room Khawas Khawas Khawas 178",AJMER,25.83963573,75.09295184,,
105,179,"Govt Primary School East Part Room Khawas Khawas Khawas 179",AJMER,25.84035615,75.09600592,,
105,180,"Govt Upper Primary School East Part Hall Sheshpura Sheshpura Sheshpura 180",AJMER,25.8283374,75.08072024,,
105,181,"Govt Govt Primary School East Part Room Devkhera Devkhera Devkhera 181",AJMER,25.82072349,75.11054672,,
105,182,"Govt Hr Hr Secondary School East Part Room Kadera Kadera Kadera 182",AJMER,25.80491723,75.05259252,,
101,96,"Sant Josaph Bal Niketan Primary School Ajmer, Room No 1",AJMER,26.43657101,74.66591521,"Urban area",5
101,97,"New All Sant Sin Sin Sec Sec School Dholabhata Road, Ajmer Room No 1",AJMER,26.43666532,74.65655077,"Urban area",5
101,98,"New All Sant Sin Sin Sec Sec School Dholabhata Road, Ajmer Room No 2",AJMER,26.43666542,74.65655087,"Urban area",5
101,99,"Govt Govt Sec Sec School Pipal Ka Kua, Ajmer Ke Samne Wala Room Staff Room",AJMER,26.43680303,74.65632028,"Urban area",5
101,100,"Govt Govt Sec Sec School Pipal Ka Kua, Ajmer Class 10 Ka Room",AJMER,26.4368773,74.65624328,"Urban area",5
101,101,"Arayan Higher Sec Sec School Dholabhata Road Ajmer (principal Room)",AJMER,26.4370164,74.65543891,"Urban area",5
101,102,"Arayan Higher Sec Sec School Dholabhata Road Ajmer Class 10 Ka Room",AJMER,26.4370165,74.65543901,"Urban area",5
101,103,"Arayan Higher Sec Sec School Dholabhata Road Ajmer Room No 9",AJMER,26.4370166,74.65543911,"Urban area",5
101,104,"East East Point School, Meyo Link Road, Ajmer Room No 8",AJMER,26.44230087,74.66059275,"Urban area",5
101,128,"Devnarayan Shiksha Niketan Sec Sec School Narsinghpura Jons Ganj, Ajmer, Room No 10",AJMER,26.43166993,74.64128884,"Urban area",5
101,80,"Sant Sant Thoumas Sin Sin Sec Sec School School Alwer Gate, Ajmer Room No No 06",AJMER,26.4647911,74.62925183,"Urban area",5
100,58,"Gurunanak sr sec school, vaishali nagar ajmer room no 7",AJMER,26.49314112,74.63038212,"Urban area",5
100,59,"Charan vidyapeeth makarwali road, ajmer east side old primary room no 2 makarwali road",AJMER,26.49520471,74.63050391,"Urban area",5
100,62,"Govt girls middle school room no 1, behind parshavnath ajmer anasagar link road",AJMER,26.48852016,74.63444167,"Urban area",5
100,63,"Govt girls middle school room no 8, behind parshavnath ajmer anasagar link road",AJMER,26.48856572,74.63439454,"Urban area",5
100,65,"Brightland sr sec school nursery class road side room christian ganj ajmer",AJMER,26.47894115,74.63292103,"Urban area",5
100,66,"Meera vidhya mandir 86,seva ashram kailashpuri ajmer maingate side room kailashpuri christian ganj",AJMER,26.48507066,74.63679617,"Urban area",5
100,89,"Khawaja model sec school ajmer room no 4 shastri nagar ajmer",AJMER,26.47624705,74.64249878,"Urban area",5
100,99,"govt subhash sec school south side room ganj ajmer",AJMER,26.46518439,74.63098894,"Urban area",5
100,146,"adrash sr sec school, east side room no 4 4 near of mejistic cinema, ajmer",AJMER,26.45514908,74.63466828,"Urban area",5
100,152,"sophia girls college, jaipur road, room no 12 ajmer",AJMER,26.53866587,74.64083067,,
100,23,"Govt primary school school room no 4, ramnagar near cineworld ajmer",AJMER,26.471069,74.6080768,"Urban area",5
104,150,"Govt Girls Upper Prim School Shikhrani",AJMER,25.96367029,74.68299473,,
104,151,"Govt Prim School Mokhampura",AJMER,25.98312531,74.66508917,,
104,152,"Govt Upper Prim School Nagar",AJMER,25.92989386,74.69334102,,
104,153,"Govt Upper Sec School(eastwing) Barli",AJMER,25.94060817,74.71336745,,
104,154,"Govt Upper Sec School(westwing) Badli",AJMER,25.94060817,74.71336745,,
104,155,"Govt Govt Sec Sec School Ganahera",AJMER,25.94944185,74.75399682,,
104,156,"Govt Govt Sec Sec School Lamgara",AJMER,25.93892956,74.80659041,,
104,157,"Govt Sr Sec School Devliakala North Room No 1",AJMER,25.90846053,74.78584247,,
104,158,"Govt Sr Sec School Devliyakalan (southwing)",AJMER,25.90846053,74.78584247,,
104,159,"Govt Girls Sec School Devliyakalan",AJMER,25.90800924,74.78598307,,
104,160,"Govt Upper Primary School Khedi(gudda)",AJMER,26.08006416,74.69152094,,
104,161,"Govt Upper Prim School Bagrai",AJMER,25.92020681,74.83261316,,
104,162,"Govt Sec School Gudakhurd",AJMER,25.89105076,74.85973825,,
103,30,"Govt Govt Priamary School Ramgarh Jutha",AJMER,26.05446928,74.35001318,,
103,31,"Govt Govt Upper Primary School School Motipura Beawar",AJMER,26.10800985,74.32753519,"Urban area",9
103,32,"Govt Govt Upper Primary School School Motipura Beawar",AJMER,26.10800985,74.32753519,"Urban area",9
103,33,"Govt Govt Primary School New Bank Colonybeawar",AJMER,26.11127782,74.33127697,"Urban area",9
103,34,"Govt Govt Primary School New Bank Colonybeawar",AJMER,26.11127782,74.33127697,"Urban area",9
103,35,"Govt Govt Upper Primary School (girls) Narsinghpura Beawar",AJMER,26.11686437,74.33071509,"Urban area",9
103,36,"Govt Govt Upper Primary School (girls) Narsinghpura Beawar",AJMER,26.11686437,74.33071509,"Urban area",9
103,45,"Mohd Ali Memorial Hr Sec School Beawar",AJMER,26.10601419,74.3236363,"Urban area",9
103,46,"Mohd Ali Memorial Hr Sec School Beawar",AJMER,26.10601419,74.3236363,"Urban area",9
103,47,"Govt Govt Girls' Hr Sec School Chawani Road, Beawar",AJMER,26.10663236,74.3206824,"Urban area",9
103,48,"Govt Govt Upper Primary School School Champa Nagar Beawar",AJMER,26.10628955,74.31883432,"Urban area",9
103,49,"Govt Upper Primary School (girls) Chawani Near Old Sadar Thana, Beawar",AJMER,26.11021484,74.32214195,"Urban area",9
104,163,"Govt Upper Upper Prim School Gudakalan",AJMER,25.88613071,74.87085472,,
104,164,"Govt Upper Prim School Pandolai",AJMER,25.9094324,74.87584161,,
104,122,"Govt Sr Sec School Sathana (southwing)",AJMER,25.981111,74.6282,,
104,123,"Govt Upper Prim School Kesarpura",AJMER,25.96208781,74.60496557,,
104,124,"Govt Govt Sec School (southwing) Badi",AJMER,25.92689376,74.61657677,,
104,125,"Govt Upper Prim School Bada Aasan",AJMER,25.91837157,74.61054332,,
104,126,"Govt Prim School Sutikheda(devgarh)",AJMER,25.92250062,74.5949523,,
104,132,"Govt Narayan Upper Prim School Pipali Chouraya Vijaynagar",AJMER,25.9265937,74.64777373,,
104,133,"Govt Govt Girl Girl Up Up Prim Prim School School West room Bijaynagar",AJMER,25.92915667,74.64715696,,
104,134,"Krishi Upaj Mandi Rest Room Vijaynagar",AJMER,25.92674097,74.6452169,,
104,135,"Govt Narayan Sr Sec School (left Side Room) Vijaynagar",AJMER,25.92919801,74.6419241,,
104,136,"Govt Narayan Sr Sec School (right Side Room) Vijaynagar",AJMER,25.92919801,74.6419241,,
103,50,"Govt Govt Priamary School (boys) Chawni, Sansi Basti, Beawar",AJMER,26.11223048,74.32067013,"Urban area",9
103,51,"Office of The Jen (pwd) Chawani Beawar",AJMER,26.11011389,74.319169,"Urban area",9
103,56,"Mission Upper Primary School (boys) Beawar",AJMER,26.10464907,74.3156236,"Urban area",9
103,57,"Mission Upper Primary School (boys) Beawar",AJMER,26.10464907,74.3156236,"Urban area",9
103,58,"Govt Govt Girls' Hr Sec School Diggi Mohhalla Mohhalla Beawar",AJMER,26.10295195,74.31952369,"Urban area",9
103,62,"Office of The Muncipal Council Beawar",AJMER,26.10436111,74.31835777,"Urban area",9
103,63,"Govt Patel Upper Primary School Rang Mahal Beawar",AJMER,26.10243843,74.31785658,"Urban area",9
103,64,"Govt Patel Upper Primary School School Rang Mahal Beawar",AJMER,26.10243843,74.31785658,"Urban area",9
103,65,"Maheshwari Bhawan Sharadhnan Bazar Beawar",AJMER,26.10190556,74.33208333,"Urban area",9
103,66,"Godhawari Girls'hr Sec School Aarya Samaj Gali Beawar",AJMER,26.10104722,74.33279722,"Urban area",9
103,67,"Shanti Jain Seconaday School Piplia Bazar Beawar",AJMER,26.09994444,74.31756944,"Urban area",9
103,68,"Kundan Bhawan Bichadali Mohhalla Mohhalla Beawar",AJMER,26.09846111,74.32011111,"Urban area",9
98,195,"Govt Govt Secondary School, Mandawariya",AJMER,26.44578286,74.99905714,,
98,196,"Govt Govt Sen Sen Secondary School, Lamba, Room No 1",AJMER,26.40162038,75.00317842,,
98,197,"Govt Govt Sen Sen Secondary School, Lamba, Room No 3",AJMER,26.40162038,75.00317842,,
98,198,"Govt Govt Govt Primary School, Lamba",AJMER,26.45217386,75.05548119,,
