ac_id_09,booth_id_14,booth_name_14,district_name_14,latitude,longitude,modis,modis_rank
165,167,Dhanora,"Agar Malwa",23.4415,76.2133,,
166,171,Pipalonakala,"Agar Malwa",23.3831,75.5226,,
165,169,Guradiya,"Agar Malwa",23.4414,76.2133,,
166,172,Lalakhedi,"Agar Malwa",23.3648,75.5027,,
165,172,Kushalpura,"Agar Malwa",23.4608,76.1836,,
166,175,Sonachidhi,"Agar Malwa",23.3629,75.5242,,
165,173,Banskhedi,"Agar Malwa",23.462,76.181,,
166,176,Raghougadh,"Agar Malwa",23.3452,75.5229,,
165,177,Pilvas,"Agar Malwa",23.4808,76.1125,,
166,180,"Lakhakhedi Urph Akhakhedi","Agar Malwa",23.3545,75.5347,,
165,178,Pilvas,"Agar Malwa",23.4808,76.1125,,
166,181,Thadouda,"Agar Malwa",23.3604,75.5544,,
165,179,Kilona,"Agar Malwa",23.4854,76.0952,,
166,182,Hadai,"Agar Malwa",23.3701,75.5543,,
165,180,Pipalakhedi,"Agar Malwa",23.4853,76.0936,,
166,183,Sumarakhedi,"Agar Malwa",23.3818,75.5727,,
165,181,Richhi,"Agar Malwa",23.4943,76.0856,,
166,184,Malavasa,"Agar Malwa",23.2812,75.5516,,
165,182,Guradayiadev,"Agar Malwa",23.4829,76.0852,,
166,185,Pipalonakhurd,"Agar Malwa",23.381,75.5401,,
165,184,Khelagaon,"Agar Malwa",23.4709,76.0923,,
166,186,Lingoda,"Agar Malwa",23.3918,75.5448,,
165,185,Tolakyakhedi,"Agar Malwa",23.4714,76.1001,,
166,187,Mallupura,"Agar Malwa",23.3948,75.5456,,
165,186,Ridoli,"Agar Malwa",23.461,76.0911,,
166,188,Sirapoi,"Agar Malwa",23.401,75.5558,,
165,187,Kohadayi,"Agar Malwa",23.4637,76.1102,,
165,196,Damdam,"Agar Malwa",23.4438,76.1028,,
166,198,"Rampura Bhundavas","Agar Malwa",23.3323,75.5925,,
165,197,Nanyakhedi,"Agar Malwa",23.4409,76.0852,,
166,199,Khimakhedi,"Agar Malwa",23.3605,76.0001,,
165,199,Bagavad,"Agar Malwa",23.4305,76.0958,,
166,201,"Ranayara Rathour","Agar Malwa",23.3435,76.0119,,
165,201,"Lasudalya Gopal","Agar Malwa",23.4339,76.1056,,
166,203,Nevari,"Agar Malwa",23.3539,76.0315,,
165,203,Padalya,"Agar Malwa",23.435,76.1336,,
166,205,Jetpura,"Agar Malwa",23.3622,76.0133,,
165,205,Badagaon,"Agar Malwa",23.4359,76.183,,
166,207,Bhadava,"Agar Malwa",23.3817,76.0123,,
165,208,Badagaon,"Agar Malwa",23.4359,76.183,,
166,210,"Gangada Hadda","Agar Malwa",23.3721,76.0321,,
165,209,Tikon,"Agar Malwa",23.4307,76.2145,,
166,211,Bajana,"Agar Malwa",23.3506,76.0451,,
165,213,Malyahedi,"Agar Malwa",23.4239,76.205,,
166,215,Palada,"Agar Malwa",23.4042,76.0508,,
165,214,Kadula,"Agar Malwa",23.4143,76.1839,,
166,216,"Palada (sultanapura)","Agar Malwa",23.4008,76.0524,,
165,215,Deharipal,"Agar Malwa",23.4147,76.1559,,
166,217,"Nanukhedi Meena","Agar Malwa",23.3931,76.0758,,
165,217,Bijanakhedi,"Agar Malwa",23.4055,76.1607,,
166,218,"Nanyakhedi Ahir","Agar Malwa",23.4011,76.084,,
165,218,Parasula,"Agar Malwa",23.4158,76.1318,,
166,219,Aranya,"Agar Malwa",23.412,76.0754,,
165,223,Javadi,"Agar Malwa",23.3822,76.1444,,
165,32,Karakdiya,"Agar Malwa",24.084,76.083,,
166,32,"Akya Agar","Agar Malwa",23.4934,76.0029,,
165,34,Divankhedi,"Agar Malwa",24.0719,76.1,,
166,34,"Devali Agar","Agar Malwa",23.4831,75.5913,,
165,36,Soyatkhurd,"Agar Malwa",24.0718,76.1226,,
166,36,Bhadavasa,"Agar Malwa",23.4859,75.5707,,
165,39,Khejadakhedi,"Agar Malwa",24.0526,76.0935,,
166,40,"Dhabala Kshatri","Agar Malwa",23.4914,75.5427,,
165,95,Garda,"Agar Malwa",23.5929,75.5821,,
166,98,Lakshmikheda,"Agar Malwa",23.4837,76.0707,,
166,97,Salari,"Agar Malwa",23.4741,76.0613,,
165,97,Kalariya,"Agar Malwa",23.5903,76.032,,
166,100,"Kheda Madhopur","Agar Malwa",23.4635,76.0801,,
165,99,Maina,"Agar Malwa",23.5818,76.0401,,
166,102,Kashibadirya,"Agar Malwa",23.4655,76.0214,,
165,102,"Pipalya Nankar","Agar Malwa",23.5644,76.0333,,
166,105,Jamali,"Agar Malwa",23.4509,75.5543,,
165,104,Susner,"Agar Malwa",23.5649,76.0518,,
166,107,"Pipalya Hamir","Agar Malwa",23.4525,75.5241,,
165,106,Susner,"Agar Malwa",23.5649,76.0518,,
166,109,Amalya,"Agar Malwa",23.4307,75.5109,,
165,107,Susner,"Agar Malwa",23.5649,76.0518,,
165,109,Susner,"Agar Malwa",23.5649,76.0518,,
166,112,Sudavas,"Agar Malwa",23.4228,75.5153,,
165,111,Susner,"Agar Malwa",23.5649,76.0518,,
166,114,Padal,"Agar Malwa",23.4217,75.5347,,
165,113,Umariya,"Agar Malwa",23.5517,76.0257,,
165,231,"Simarol Sha0","Agar Malwa",23.3807,76.1949,,
166,237,Badabid,"Agar Malwa",23.3755,76.0809,,
165,233,Govinda,"Agar Malwa",23.39,76.1726,,
166,239,Ghanikhedi,"Agar Malwa",23.3659,76.0829,,
165,235,Baranavad,"Agar Malwa",23.3946,76.1921,,
166,241,Pacheti,"Agar Malwa",23.3647,76.0909,,
165,237,Mangaliya,"Agar Malwa",23.4013,76.2046,,
166,243,Sanvara,"Agar Malwa",23.3457,76.0855,,
165,238,Bhavarasa,"Agar Malwa",23.4013,76.2229,,
166,244,Sanavadi,"Agar Malwa",23.3515,76.0945,,
165,240,Sirasodiya,"Agar Malwa",23.3843,76.2222,,
166,246,Kalamoi,"Agar Malwa",23.363,76.101,,
165,242,Karaju,"Agar Malwa",23.3815,76.2402,,
166,248,Chandanagaon,"Agar Malwa",23.3556,76.112,,
166,251,Bhadabhunji,"Agar Malwa",23.3646,76.1326,,
165,69,Bajna,"Agar Malwa",24.0157,76.1346,,
166,72,Barod,"Agar Malwa",23.4722,75.4834,"Urban area",7
165,72,Payali,"Agar Malwa",23.5833,76.1323,,
166,75,Barod,"Agar Malwa",23.4722,75.4834,"Urban area",7
165,183,"Dehri Dev","Agar Malwa",23.4826,76.0841,,
165,168,Gunjariya,"Agar Malwa",23.4326,76.2345,,
165,143,Borkhedi,"Agar Malwa",23.4554,76.1355,,
165,118,"Amla Nankar","Agar Malwa",23.5529,76.0653,,
165,63,Mehndi,"Agar Malwa",23.5922,76.0959,,
165,19,Soyatkalan,"Agar Malwa",24.1122,76.1035,,
165,133,Dharola,"Agar Malwa",23.5506,76.1544,,
166,223,Kanad,"Agar Malwa",23.402,76.1015,,
165,62,Logdi,"Agar Malwa",23.5953,76.1038,,
166,65,Banothikhurd,"Agar Malwa",23.4326,75.4758,,
165,65,Modi,"Agar Malwa",23.5859,76.1052,,
166,67,"Khajuri Barod","Agar Malwa",23.4412,75.4815,,
165,67,Modi,"Agar Malwa",23.5859,76.1052,,
166,69,Kadavala,"Agar Malwa",23.4543,75.4947,,
165,150,Nalkheda,"Agar Malwa",23.501,76.1426,,
166,154,"Jamuniya Agar","Agar Malwa",23.402,76.0142,,
165,152,Nalkheda,"Agar Malwa",23.501,76.1426,,
166,156,Dhonti,"Agar Malwa",23.4023,75.5755,,
165,154,Nalkheda,"Agar Malwa",23.501,76.1426,,
166,158,Rojhani,"Agar Malwa",23.4201,75.5614,,
165,155,Nalkheda,"Agar Malwa",23.501,76.1426,,
166,159,"Nipanya Hanuman","Agar Malwa",23.4107,75.5335,,
165,157,Nalkheda,"Agar Malwa",23.501,76.1426,,
166,161,Manjukhedi,"Agar Malwa",23.4016,75.5034,,
165,159,Bhandavad,"Agar Malwa",23.493,76.1804,,
166,163,Alasiya,"Agar Malwa",23.3759,75.5003,,
165,160,"Patna Bhilkhedi","Agar Malwa",23.5146,76.1939,,
166,164,Kalyakhedi,"Agar Malwa",23.3826,75.5051,,
165,174,Thikariya,"Agar Malwa",23.4554,76.1524,,
166,177,Thikariya,"Agar Malwa",23.3353,75.5219,,
165,98,Maina,"Agar Malwa",23.5818,76.0401,,
166,101,Ahirabardiya,"Agar Malwa",23.4606,76.0433,,
165,70,Ghatakhedi,"Agar Malwa",24.0156,76.1456,,
166,73,Barod,"Agar Malwa",23.4722,75.4834,"Urban area",7
165,49,Mangishpur,"Agar Malwa",24.0136,76.0928,,
165,41,Khimapura,"Agar Malwa",24.0525,76.0747,,
166,42,Tokada,"Agar Malwa",23.4858,75.5222,,
165,44,Dhaturiya,"Agar Malwa",24.0432,76.0726,,
166,47,Kakadel,"Agar Malwa",23.4959,75.4915,,
165,46,Gagorani,"Agar Malwa",24.0307,76.1016,,
166,49,"Ranayara Barod","Agar Malwa",23.4801,75.4509,,
165,48,Ganeshpura,"Agar Malwa",24.0158,76.0951,,
166,51,"Dhabala Anjana","Agar Malwa",23.4848,75.4213,"Urban area",7
165,50,Bhavanipura,"Agar Malwa",24.0214,76.0935,,
166,53,Dhodhar,"Agar Malwa",23.4651,75.4233,"Urban area",7
165,51,Kitkhedi,"Agar Malwa",24.0211,76.0745,,
166,54,Baragadi,"Agar Malwa",23.4615,75.4209,"Urban area",7
165,53,Lodhakhedi,"Agar Malwa",24.0301,76.0607,,
166,56,Lodhakhedi,"Agar Malwa",23.4451,75.4451,,
165,55,Patpada,"Agar Malwa",24.0358,76.0327,,
166,58,"Barakheda Barod","Agar Malwa",23.463,75.444,"Urban area",7
165,57,Nanora,"Agar Malwa",24.0135,76.0413,,
166,60,Pipalyavijay,"Agar Malwa",23.472,75.4729,"Urban area",7
165,59,Khejadi,"Agar Malwa",24.0103,76.0642,,
166,62,Bhimakhedi,"Agar Malwa",23.4523,75.4705,,
165,211,Mohana,"Agar Malwa",23.4135,76.2219,,
166,213,Dhurasiya,"Agar Malwa",23.37,76.0456,,
166,145,"Kasai Dehariya","Agar Malwa",23.4248,76.0508,,
165,18,Soyatakalan,"Agar Malwa",24.1122,76.1035,,
166,20,Kheriya,"Agar Malwa",23.5512,75.5857,,
165,191,Davatpur,"Agar Malwa",23.4519,76.1406,,
166,193,Tanodiya,"Agar Malwa",23.3537,76.5638,,
166,229,Singavad,"Agar Malwa",23.4111,76.1156,,
165,224,Veeragaon,"Agar Malwa",23.3813,76.1353,,
165,225,Sagadayi,"Agar Malwa",23.3752,76.1428,,
166,230,Samagimana,"Agar Malwa",23.3925,76.1316,,
165,228,Bandahedi,"Agar Malwa",23.3639,76.1608,,
166,234,Ikalera,"Agar Malwa",23.3826,76.1157,,
165,158,Kachanariya,"Agar Malwa",23.4808,76.1716,,
166,162,"Pipalya Mana","Agar Malwa",23.394,75.4916,,
165,89,Sadalpur,"Agar Malwa",23.5811,76.0515,,
166,91,Mangavaliya,"Agar Malwa",23.4931,76.0139,,
165,68,Richhadiya,"Agar Malwa",24.0141,76.1222,,
166,70,Barod,"Agar Malwa",23.4722,75.4834,"Urban area",7
165,4,Guradiya,"Agar Malwa",24.1652,76.0932,,
166,4,Kachariya,"Agar Malwa",23.5027,75.4404,,
165,26,"Kheriya Soyat","Agar Malwa",24.1008,76.1109,,
166,26,Barakheda,"Agar Malwa",23.5104,76.0305,,
165,125,"Latoori Gehalot","Agar Malwa",23.5546,76.13,,
166,129,Agar,"Agar Malwa",23.4243,76.0056,,
165,117,Jamuniya,"Agar Malwa",23.5604,76.0714,,
166,120,Agar,"Agar Malwa",23.4243,76.0056,,
165,90,"Borkhedi Kanval","Agar Malwa",23.5913,76.0427,,
166,92,Karadiya,"Agar Malwa",23.4849,76.0144,,
165,85,"Nipanya Susner","Agar Malwa",23.5901,76.0827,,
166,87,Sarasi,"Agar Malwa",23.4729,75.5801,,
165,31,Lohariya,"Agar Malwa",24.09,76.1004,,
166,31,Ambadev,"Agar Malwa",23.5029,75.5932,,
165,5,Shripatpura,"Agar Malwa",24.1546,76.1105,,
165,243,Karaju,"Agar Malwa",23.3815,76.2402,,
166,249,Chandanaganv,"Agar Malwa",23.3556,76.112,,
166,250,Chachakhedi,"Agar Malwa",23.3509,76.1114,,
165,241,Karaju,"Agar Malwa",23.3815,76.2402,,
166,247,Kundalakhurd,"Agar Malwa",23.381,76.0941,,
165,239,"Nipanya Karaju","Agar Malwa",23.3854,76.2106,,
166,245,Haraganakhedi,"Agar Malwa",23.3647,76.0909,,
165,234,Baranavad,"Agar Malwa",23.3946,76.1921,,
166,240,"Pipalya Junnar","Agar Malwa",23.3627,76.0644,,
165,232,Dhataravada,"Agar Malwa",23.3821,76.1709,,
166,238,Rayapuriya,"Agar Malwa",23.3829,76.0712,,
165,236,Badodi,"Agar Malwa",23.4057,76.1909,,
166,242,"Phatehapur Mendhaki","Agar Malwa",23.3415,76.0823,,
165,219,Phavaka,"Agar Malwa",23.4057,76.1344,,
166,220,Rajakhedi,"Agar Malwa",23.4053,76.0708,,
165,212,Mohana,"Agar Malwa",23.4135,76.2219,,
166,214,Tilavadiya,"Agar Malwa",23.3829,76.0446,,
165,202,Siya,"Agar Malwa",23.4322,76.1336,,
166,204,Bhimpura,"Agar Malwa",23.3536,76.0152,,
165,200,Baigaon,"Agar Malwa",23.4239,76.1112,,
166,202,Gata,"Agar Malwa",23.3528,76.0314,,
165,194,Dhanyakhedi,"Agar Malwa",23.4359,76.1126,,
166,196,Tanodiya,"Agar Malwa",23.3537,76.5638,,
165,221,Chouma,"Agar Malwa",23.3856,76.1325,,
166,224,Kanad,"Agar Malwa",23.402,76.1015,,
166,222,Kanad,"Agar Malwa",23.402,76.1015,,
166,226,Kanad,"Agar Malwa",23.402,76.1015,,
165,123,Gujarkhedi,"Agar Malwa",23.5432,76.121,,
166,127,Agar,"Agar Malwa",23.4243,76.0056,,
165,126,Molyakhedi,"Agar Malwa",23.5505,76.1544,,
166,130,Agar,"Agar Malwa",23.4243,76.0056,,
165,128,Kothadi,"Agar Malwa",23.5356,76.1713,,
166,133,Agar,"Agar Malwa",23.4243,76.0056,,
165,130,Rojadi,"Agar Malwa",23.5114,76.164,,
166,135,Agar,"Agar Malwa",23.4243,76.0056,,
165,132,Dharola,"Agar Malwa",23.5506,76.1544,,
166,137,Agar,"Agar Malwa",23.4243,76.0056,,
165,135,Padana,"Agar Malwa",23.5206,76.1224,,
166,139,Agar,"Agar Malwa",23.4243,76.0056,,
165,137,Digon,"Agar Malwa",23.5328,76.0924,,
166,142,Parasukhedi,"Agar Malwa",23.4453,76.0035,,
165,139,Semalkhedi,"Agar Malwa",23.5251,76.0828,,
166,144,"Nipanya Baijanath","Agar Malwa",23.4142,76.0228,,
165,140,Kadiya,"Agar Malwa",23.5434,76.0648,,
165,142,Lalukhedi,"Agar Malwa",23.5124,76.0858,,
166,147,Karavakhedi,"Agar Malwa",23.4508,76.0749,,
165,145,"Lasuldiya Kelava","Agar Malwa",23.5011,76.1137,,
166,149,Pachora,"Agar Malwa",23.4238,76.08,,
165,147,Gudravan,"Agar Malwa",23.5025,76.1307,,
166,151,"Chikali Paramar","Agar Malwa",23.4707,76.0652,,
165,148,Nalkheda,"Agar Malwa",23.501,76.1426,,
166,152,"Kundala Agar","Agar Malwa",23.4146,76.0422,,
165,138,Semalkhedi,"Agar Malwa",23.5251,76.0828,,
166,143,"Nipanya Baijanath","Agar Malwa",23.4142,76.0228,,
166,189,Palakhedi,"Agar Malwa",23.3936,75.5821,,
165,188,Manasa,"Agar Malwa",23.4536,76.121,,
166,190,"Umariya Devda","Agar Malwa",23.3854,75.5805,,
165,192,Pankhedi,"Agar Malwa",23.453,76.1428,,
166,194,Tanodiya,"Agar Malwa",23.3537,76.5638,,
165,193,Chanpakheda,"Agar Malwa",23.4518,76.1407,,
166,195,Tanodiya,"Agar Malwa",23.3537,76.5638,,
165,74,Gothada,"Agar Malwa",23.562,76.1726,,
166,77,Barod,"Agar Malwa",23.4722,75.4834,"Urban area",7
165,77,Devpur,"Agar Malwa",23.5625,76.1437,,
166,79,Behaka,"Agar Malwa",23.4616,75.5229,,
165,79,Sirpoi,"Agar Malwa",23.5712,76.13,,
166,81,"Binayaga Barod","Agar Malwa",23.4745,75.5429,,
165,81,Kajalas,"Agar Malwa",23.5654,76.1107,,
166,83,Giroli,"Agar Malwa",23.4638,75.5526,,
165,83,"Dhabala Kelva","Agar Malwa",23.5622,76.0839,,
166,85,"Chikali Soudhiya","Agar Malwa",23.4551,75.5605,,
165,86,Nandana,"Agar Malwa",23.5743,76.0747,,
166,88,Dabadiya,"Agar Malwa",23.4652,76.0009,,
165,88,Badiya,"Agar Malwa",23.5822,76.0657,,
166,90,Ratanakhedi,"Agar Malwa",23.484,76.013,,
165,91,Sarsi,"Agar Malwa",23.5958,76.0525,,
166,93,"Bapacha Agar","Agar Malwa",23.4746,76.0217,,
165,93,Shyampura,"Agar Malwa",24.0036,76.0315,,
166,95,"Mahudiya Agar","Agar Malwa",23.4855,76.051,,
165,230,Phardakhedi,"Agar Malwa",23.3709,76.1827,,
166,236,Gajariya,"Agar Malwa",23.3745,76.1059,,
166,5,"Bapacha Barod","Agar Malwa",23.5049,75.4449,,
165,220,Chouma,"Agar Malwa",23.3856,76.1325,,
166,221,Shivagadh,"Agar Malwa",23.4213,76.0839,,
165,210,Mohana,"Agar Malwa",23.4135,76.2219,,
166,212,Arani,"Agar Malwa",23.3629,76.0624,,
165,190,"Semali Nalkheda","Agar Malwa",23.4727,76.1401,,
166,192,"Jhalara Agar","Agar Malwa",23.3654,75.5902,,
165,162,Bisani,"Agar Malwa",23.4823,76.1826,,
166,166,Phatehagadh,"Agar Malwa",23.3923,75.5322,,
165,161,Panala,"Agar Malwa",23.4923,76.2024,,
166,165,Merakhedi,"Agar Malwa",23.3935,75.5042,,
165,156,Nalkheda,"Agar Malwa",23.501,76.1426,,
166,160,"Dhabala Pipalon","Agar Malwa",23.4013,75.512,,
165,149,Nalkheda,"Agar Malwa",23.501,76.1426,,
166,153,Semali,"Agar Malwa",23.4037,76.0331,,
165,146,Gudravan,"Agar Malwa",23.5025,76.1307,,
166,150,"Pipalya Kumhar","Agar Malwa",23.4308,76.0632,,
165,144,Suigaon,"Agar Malwa",23.5109,76.0946,,
166,148,Ladavan,"Agar Malwa",23.442,76.0815,,
165,141,Lolki,"Agar Malwa",23.5221,76.074,,
166,146,"Chikali Goyal","Agar Malwa",23.4406,76.0357,,
165,131,Dharola,"Agar Malwa",23.5506,76.1544,,
166,136,Agar,"Agar Malwa",23.4243,76.0056,,
165,122,Ikalera,"Agar Malwa",23.5444,76.1127,,
166,126,Agar,"Agar Malwa",23.4243,76.0056,,
165,116,Ankali,"Agar Malwa",23.5421,76.0549,,
166,119,Avar,"Agar Malwa",23.4231,75.5845,,
166,110,Garabada,"Agar Malwa",23.43333,75.515,,
165,101,Palda,"Agar Malwa",23.5621,76.0034,,
166,104,Kulamadhi,"Agar Malwa",23.4532,75.5739,,
165,94,"Semli Susner","Agar Malwa",24.002,75.5905,,
166,96,"Bhimlod Urph Pacharudi","Agar Malwa",23.4711,76.0217,,
165,92,"Guradi Susner","Agar Malwa",24.0021,76.0337,,
166,94,"Amala Agar","Agar Malwa",23.5112,76.0548,,
165,82,Parasulyakalan,"Agar Malwa",23.5709,76.1009,,
166,84,Haranavada,"Agar Malwa",23.473,75.5654,,
165,80,Dharukhedi,"Agar Malwa",23.5734,76.1208,,
166,82,Jaisinghpura,"Agar Malwa",23.4826,75.5523,,
165,78,Antaraliya,"Agar Malwa",23.5642,76.1248,,
166,80,Chhayan,"Agar Malwa",23.4613,75.5314,,
165,58,Malanvasa,"Agar Malwa",24.0111,76.0441,,
166,61,Bilya,"Agar Malwa",23.4605,75.4733,"Urban area",7
165,38,"Majra Amanpur","Agar Malwa",24.0721,76.1204,,
166,39,"Dhabala Soudhiya","Agar Malwa",23.4951,75.5515,,
165,37,Soyatakhurd,"Agar Malwa",24.0718,76.1226,,
166,38,"Gudabheli Agar","Agar Malwa",23.5106,75.5134,,
165,28,Kanvarakhedi,"Agar Malwa",24.0902,76.1216,,
166,28,Gangapur,"Agar Malwa",23.5208,75.5948,,
165,21,"Soyatkalan (patti)","Agar Malwa",24.1122,76.1035,,
166,22,"Dehariya Nana","Agar Malwa",23.5533,76.0023,,
165,15,Soyatkalan,"Agar Malwa",24.1122,76.1035,,
166,17,Pharasapura,"Agar Malwa",23.5311,75.5633,,
165,9,Dongaragaon,"Agar Malwa",24.1453,76.1005,,
166,10,"Barakhedi Barod","Agar Malwa",23.5241,75.5053,,
166,252,Sutada,"Agar Malwa",23.3625,76.134,,
166,253,Batavada,"Agar Malwa",23.3503,76.1354,,
165,206,Badagaon,"Agar Malwa",23.4359,76.183,,
166,208,Bhyana,"Agar Malwa",23.3913,76.0322,,
165,195,Pachalana,"Agar Malwa",23.4358,76.1053,,
166,197,Sutheli,"Agar Malwa",23.3419,75.5652,,
165,127,"Dehri Gujar","Agar Malwa",23.5555,76.1514,,
166,131,Agar,"Agar Malwa",23.4243,76.0056,,
165,151,Nalkheda,"Agar Malwa",23.501,76.1426,,
166,155,"Pura Urph Sahabnagar","Agar Malwa",23.4048,76.011,,
165,112,Susner,"Agar Malwa",23.5649,76.0518,,
166,115,Kaganikheda,"Agar Malwa",23.4322,75.5401,,
165,105,Susner,"Agar Malwa",23.5649,76.0518,,
166,108,Madakota,"Agar Malwa",23.4446,75.5113,,
165,66,Modi,"Agar Malwa",23.5859,76.1052,,
166,68,Singalya,"Agar Malwa",23.4408,75.4959,,
165,61,Khajuri,"Agar Malwa",23.5932,76.083,,
166,64,Khedanarela,"Agar Malwa",23.4408,75.4508,,
165,56,Salriya,"Agar Malwa",24.0249,76.0254,,
166,59,"Guradiya Barod","Agar Malwa",23.4638,75.4534,"Urban area",7
165,33,"Dehariya Soyat","Agar Malwa",24.0728,76.0842,,
166,33,Umarapur,"Agar Malwa",23.4858,75.5943,,
165,198,Karakadiya,"Agar Malwa",23.4304,76.0923,,
166,200,Doudakhedi,"Agar Malwa",23.3506,75.595,,
165,175,Bhainsoda,"Agar Malwa",23.4758,76.1425,,
166,178,Gundikala,"Agar Malwa",23.3456,75.5433,,
165,163,Goyal,"Agar Malwa",23.481,76.2052,,
166,225,Kanad,"Agar Malwa",23.402,76.1015,,
165,207,Badagaon,"Agar Malwa",23.4359,76.183,,
166,209,Bhyana,"Agar Malwa",23.3913,76.0322,,
165,229,"Umariya Daya","Agar Malwa",23.3628,76.1717,,
166,235,Khankari,"Agar Malwa",23.3838,76.1108,,
165,226,Bhandedi,"Agar Malwa",23.3716,76.1342,,
166,231,Mathurakhedi,"Agar Malwa",23.3816,76.1234,,
165,189,Chharada,"Agar Malwa",23.4709,76.1255,,
166,191,Badagon,"Agar Malwa",23.3747,75.5949,,
165,176,Bhainsoda,"Agar Malwa",23.4758,76.1425,,
166,179,Gundikala,"Agar Malwa",23.3456,75.5433,,
165,129,"Dhabala Songara","Agar Malwa",23.5214,76.1809,,
166,134,Agar,"Agar Malwa",23.4243,76.0056,,
165,120,"Guradiya Susner","Agar Malwa",23.5528,76.0914,,
166,123,Agar,"Agar Malwa",23.4243,76.0056,,
165,114,Naharkheda,"Agar Malwa",23.5456,76.0359,,
166,117,Jhota,"Agar Malwa",23.4355,75.5814,,
165,103,Bamanyakhedi,"Agar Malwa",23.5704,76.0349,,
166,106,"Guradiya Piplon","Agar Malwa",23.4516,75.5439,,
165,96,"Dehariya Susner","Agar Malwa",23.5839,75.5936,,
166,99,Bijanakhedi,"Agar Malwa",23.4709,76.0923,,
165,87,Kayara,"Agar Malwa",23.5736,76.0733,,
166,89,Kankariya,"Agar Malwa",23.472,76.0118,,
165,76,Hirankhedi,"Agar Malwa",23.555,76.1553,,
166,78,Sangakhedi,"Agar Malwa",23.4655,75.5127,,
165,71,Mana,"Agar Malwa",23.5933,76.1409,,
166,74,Barod,"Agar Malwa",23.4722,75.4834,"Urban area",7
165,1,Barai,"Agar Malwa",24.1728,76.1133,,
166,1,Suhagadi,"Agar Malwa",23.5337,75.4348,,
166,52,Dhondhari,"Agar Malwa",23.4805,75.4159,"Urban area",7
165,35,Datyakhedi,"Agar Malwa",24.0802,76.0956,,
166,35,"Khajuri Chopada","Agar Malwa",23.4914,75.5849,,
165,64,Jakh,"Agar Malwa",23.5857,76.1051,,
166,66,Asandhya,"Agar Malwa",23.4303,75.4903,,
165,54,Mehatpur,"Agar Malwa",24.041,76.0431,,
166,57,"Pipalya Japhar","Agar Malwa",23.4515,75.46,,
165,45,Lalakhedi,"Agar Malwa",24.0415,76.0943,,
166,48,Jahagirapura,"Agar Malwa",23.4839,75.4722,"Urban area",7
165,40,Dholakhedi,"Agar Malwa",24.0554,76.0928,,
166,41,Rapadi,"Agar Malwa",23.4822,75.5358,,
166,167,Kubadiyakhedi,"Agar Malwa",23.3935,75.5231,,
165,153,Nalkheda,"Agar Malwa",23.501,76.1426,,
166,157,"Devalee Pipalon","Agar Malwa",23.4116,75.5703,,
165,134,Gareli,"Agar Malwa",23.534,76.1201,,
166,138,Agar,"Agar Malwa",23.4243,76.0056,,
165,124,Gujarkhedi,"Agar Malwa",23.5432,76.121,,
166,128,Agar,"Agar Malwa",23.4243,76.0056,,
165,100,"Borkhedi Lada","Agar Malwa",23.5744,75.5936,,
166,103,Naraval,"Agar Malwa",23.4453,76.0036,,
165,84,Gailana,"Agar Malwa",23.5808,76.094,,
166,86,Lala,"Agar Malwa",23.463,75.5748,,
165,52,Magariya,"Agar Malwa",24.0327,76.0731,,
166,55,"Lotiya Kishana","Agar Malwa",23.4629,75.4357,"Urban area",7
165,43,Amarkot,"Agar Malwa",24.05,76.0754,,
166,45,"Khatakhedi Ram Nagar","Agar Malwa",23.4846,75.5007,,
165,42,Kothada,"Agar Malwa",23.56,76.185,,
166,43,Suvagav,"Agar Malwa",23.4914,75.5011,,
165,30,Kalyanpura,"Agar Malwa",24.0851,76.1023,,
166,30,Marubadirya,"Agar Malwa",23.5036,75.5825,,
165,2,Barai,"Agar Malwa",24.1728,76.1133,,
166,2,Barah,"Agar Malwa",23.5241,75.43,,
165,6,Dongargaon,"Agar Malwa",24.1453,76.1005,,
166,6,"Jamuniya Barod","Agar Malwa",23.4922,75.4448,,
165,8,Dongargaon,"Agar Malwa",24.1453,76.1005,,
166,8,"Jhalara Barod","Agar Malwa",23.5206,75.4953,,
165,10,Salyakhedi,"Agar Malwa",24.1345,76.1004,,
166,11,Unchvas,"Agar Malwa",23.515,75.5225,,
165,164,Gadiya,"Agar Malwa",23.481,76.2245,,
166,168,Pipalonakala,"Agar Malwa",23.3831,75.5226,,
165,165,Ladon,"Agar Malwa",23.4626,76.2054,,
166,169,Pipalonakala,"Agar Malwa",23.3831,75.5226,,
165,170,Bhidon,"Agar Malwa",23.453,76.204,,
166,173,Lapakhedi,"Agar Malwa",23.363,75.5105,,
165,13,Nishaniya,"Agar Malwa",24.1158,76.0845,,
166,15,Kandari,"Agar Malwa",23.5211,75.5517,,
165,110,Susner,"Agar Malwa",23.5649,76.0518,,
166,113,Sevakhedi,"Agar Malwa",23.4225,75.5314,,
165,166,"Laturi Umat","Agar Malwa",23.4542,76.224,,
166,170,Pipalonakala,"Agar Malwa",23.3831,75.5226,,
165,47,Gundlavada,"Agar Malwa",24.0247,76.1101,,
166,50,Ramakhedi,"Agar Malwa",23.4807,75.4315,,
165,24,Ravli,"Agar Malwa",24.1052,76.121,,
166,24,Sarangakhedee,"Agar Malwa",23.523,76.0218,,
165,11,Salyakhedi,"Agar Malwa",24.1345,76.1004,,
166,12,"Amba Barod","Agar Malwa",23.5106,75.5212,,
165,227,Aroliya,"Agar Malwa",23.3628,76.135,,
166,232,Jassakhedi,"Agar Malwa",23.3723,76.1201,,
166,233,Kadiya,"Agar Malwa",23.3647,76.1143,,
165,222,Buralay,"Agar Malwa",23.3953,76.1543,,
166,227,Kanad,"Agar Malwa",23.402,76.1015,,
166,228,Kanad,"Agar Malwa",23.402,76.1015,,
165,204,Gondalmau,"Agar Malwa",23.4339,76.1549,,
166,206,"Lakhaman Khedi","Agar Malwa",23.3639,76.0145,,
165,3,Kishanpura,"Agar Malwa",24.1737,76.1012,,
166,3,"Mahudiya Barod","Agar Malwa",23.5229,75.4451,,
166,116,Chipya,"Agar Malwa",23.4308,75.5525,,
165,115,Khanota,"Agar Malwa",23.5336,76.0507,,
166,118,Malikhedi,"Agar Malwa",23.4328,75.5903,,
165,119,Chhapriya,"Agar Malwa",23.5451,76.0817,,
166,122,Agar,"Agar Malwa",23.4243,76.0056,,
165,121,"Kheriya Susner","Agar Malwa",23.5502,76.1021,,
166,125,Agar,"Agar Malwa",23.4243,76.0056,,
166,132,Agar,"Agar Malwa",23.4243,76.0056,,
166,71,Barod,"Agar Malwa",23.4722,75.4834,"Urban area",7
166,37,Udaypura,"Agar Malwa",23.5043,75.5629,,
166,13,Kanakheda,"Agar Malwa",23.5134,75.5124,,
166,9,Hatipura,"Agar Malwa",23.5132,75.4803,,
166,44,"Gudbheli Barod","Agar Malwa",23.5219,75.5642,,
166,46,"Khatakhedi Barnagar","Agar Malwa",23.4808,75.5035,,
165,108,Susner,"Agar Malwa",23.5649,76.0518,,
166,111,Sudavas,"Agar Malwa",23.4228,75.5153,,
165,73,Takhala,"Agar Malwa",23.5857,76.1537,,
166,76,Barod,"Agar Malwa",23.4722,75.4834,"Urban area",7
165,22,"Soyatkalan (patti)","Agar Malwa",24.1122,76.1035,,
165,171,Pipalyaset,"Agar Malwa",23.472,76.1835,,
166,174,"Pipalya Sadikapur","Agar Malwa",23.3616,75.5215,,
165,136,Dhandeda,"Agar Malwa",23.5202,76.1049,,
166,140,Agar,"Agar Malwa",23.4243,76.0056,,
165,60,Khairana,"Agar Malwa",24.0006,76.07,,
166,63,Khedanarela,"Agar Malwa",23.4408,75.4508,,
166,121,Agar,"Agar Malwa",23.4243,76.0056,,
166,124,Agar,"Agar Malwa",23.4243,76.0056,,
166,141,Agar,"Agar Malwa",23.4243,76.0056,,
165,75,Gothada,"Agar Malwa",23.562,76.1726,,
165,216,"Banjara Dera, Deharipal","Agar Malwa",23.4147,76.1559,,
165,12,Khindiyakhedi,"Agar Malwa",24.1241,76.0941,,
166,14,Bijanagari,"Agar Malwa",23.5121,75.5537,,
165,14,"Bijana Khedi","Agar Malwa",24.1104,76.0825,,
166,16,Kachaliya,"Agar Malwa",23.5257,75.5525,,
165,16,Soyatkalan,"Agar Malwa",24.1122,76.1035,,
166,18,"Ranayara Kelava","Agar Malwa",23.5241,75.5822,,
165,17,Soyatkalan,"Agar Malwa",24.1122,76.1035,,
166,19,Karanaliya,"Agar Malwa",23.55,75.5757,,
165,20,"Soyatkalan (patti)","Agar Malwa",24.1122,76.1035,,
166,21,"Pipalya Chacha","Agar Malwa",23.541,76.5959,,
165,23,"Soyatkalan (patti)","Agar Malwa",24.1122,76.1035,,
166,23,"Binayaga Agar","Agar Malwa",23.5212,76.012,,
165,25,Devli,"Agar Malwa",24.112,76.1111,,
166,25,Barda,"Agar Malwa",23.5142,76.4112,,
165,27,Kanvarakhedi,"Agar Malwa",24.0902,76.1216,,
166,27,"Pipalya Ghata","Agar Malwa",23.5027,76.0127,,
165,29,"Kanthaliya Ka Kheda","Agar Malwa",24.0852,76.1028,,
166,29,Gangapur,"Agar Malwa",23.5208,75.5948,,
165,7,Dongargaon,"Agar Malwa",24.1453,76.1005,,
166,7,Khandavas,"Agar Malwa",23.5004,75.465,,
191,195,Bhitada,Alirajpur,22.0486111,74.2930555,,
192,209,Chamarbegada,Alirajpur,22.0786111,74.3883333,,
191,197,Sakadi,Alirajpur,22.0213888,74.3830555,,
192,210,Chamarbegada,Alirajpur,22.317,74.583,,
191,200,Moraji,Alirajpur,22.140336,74.310209,,
192,214,"Kasba Jobat",Alirajpur,22.1630555,74.45027777,,
191,202,Ojhad,Alirajpur,22.1508333,74.3427777,,
191,201,Ojhad,Alirajpur,22.1394444,74.3122222,,
192,218,Jobat,Alirajpur,22.134444,74.4883333,,
192,216,Jobat,Alirajpur,22.1511111,74.4716666,,
191,206,Sondwa,Alirajpur,22.04155,74.26974,,
192,224,Jobat,Alirajpur,22.383,74.45,,
191,208,Bodagaw,Alirajpur,22.0786111,74.3883333,,
192,226,Kanda,Alirajpur,22.417,74.45,,
191,210,Khamat,Alirajpur,22.1363888,74.42861111,,
192,228,Ramapura,Alirajpur,22.417,74.5,,
191,212,Valapur,Alirajpur,22.134444,74.4308333,,
192,229,Badaguda,Alirajpur,22.367,74.483,,
191,223,Kulavat,Alirajpur,22.0894444,74.4930555,,
191,48,Badadala,Alirajpur,22.243353,74.288751,,
192,45,"Pochi Imali",Alirajpur,22.517,74.317,,
191,222,Behadava,Alirajpur,22.0952777,74.4691666,,
191,49,Behadwa,Alirajpur,22.92015,74.85963,,
192,48,Bhabhara,Alirajpur,22.549,74.305,,
192,46,Bhabhara,Alirajpur,22.517,74.317,,
191,51,Malawi,Alirajpur,22.235,74.3783333,,
192,52,Roliganv,Alirajpur,22.517,74.25,,
191,53,Thanasemali,Alirajpur,22.2738,74.3406,,
192,56,Koriyapan,Alirajpur,22.548902,74.297589,,
191,55,Alirajapur,Alirajpur,22.306666,74.357777,,
192,60,Badipol,Alirajpur,22.30416667,74.35105555,,
191,56,Alirajapur,Alirajpur,22.3066666,74.3577777,,
192,62,Badagav,Alirajpur,22.5579,74.261494,,
191,60,Alirajapur,Alirajpur,22.3091666,74.34777777,,
192,65,Borakundiya,Alirajpur,22.57094,74.242553,,
191,63,Alirajapur,Alirajpur,22.30416666,74.3611111,,
192,69,Barajhar,Alirajpur,22.6,74.33,,
191,66,Alirajapur,Alirajpur,22.3041666,74.3611111,,
191,89,Titi,Alirajpur,22.281242,74.501043,,
192,102,Malaveli,Alirajpur,22.517,74.333,,
191,92,Waskal,Alirajpur,22.278046,74.568782,,
192,104,Mathana,Alirajpur,22.6,74.35,,
191,100,Morasa,Alirajpur,22.239112,74.551318,,
192,108,Badimalapur,Alirajpur,22.31991,74.36801,,
191,102,Sejaganw,Alirajpur,22.319888,74.36798,,
192,111,Kaliyawav,Alirajpur,22.55,74.417,,
191,104,Bhoradiya,Alirajpur,22.196851,74.470659,,
192,115,Badabhawata,Alirajpur,22.55,74.367,,
191,106,Ajanda,Alirajpur,22.31991,74.36801,,
192,118,Girdha,Alirajpur,22.5,74.467,,
191,108,Kanapur,Alirajpur,22.233373,74.39417,,
192,120,Behadaba,Alirajpur,22.483,74.45,,
191,111,Thodasindhi,Alirajpur,22.2272222,74.4619444,,
192,123,Badimiriyawat,Alirajpur,22.55,74.317,,
191,114,Umarali,Alirajpur,22.168888,74.4002777,,
192,126,Jhiran,Alirajpur,22.533,74.333,,
191,117,Bhimabayada,Alirajpur,22.1763888,74.31916666,,
191,119,Boraku,Alirajpur,22.31989,74.36799,,
192,131,Talawad,Alirajpur,22.5,74.5,,
191,121,Balavi,Alirajpur,22.22104,74.34412,,
192,132,Manakua,Alirajpur,22.558585,74.518316,,
191,123,Sukhibavadi,Alirajpur,22.216944,74.3025,,
192,134,Khushalabayadi,Alirajpur,22.561549,74.553617,,
191,125,Chhotibegalaganv,Alirajpur,22.1877777,74.3002777,,
192,136,Bawadikhurd,Alirajpur,22.517,74.467,,
191,127,Lodhani,Alirajpur,22.1755555,74.2858333,,
192,138,Khandalagamir,Alirajpur,22.533,74.483,,
191,130,Sisavaliya,Alirajpur,22.1416666,74.2655555,,
192,142,Udayagadh,Alirajpur,22.526381,74.537424,,
191,132,"Badi Utavali",Alirajpur,22.160085,74.247061,,
192,145,"Poya , Poha",Alirajpur,22.533,74.55,,
191,135,Undari,Alirajpur,22.1633333,74.2713888,,
192,149,Thandala,Alirajpur,22.517,74.533,,
191,137,Chikhoda,Alirajpur,22.130692,74.2286,,
192,151,Terka,Alirajpur,22.5,74.55,,
191,139,Besavani,Alirajpur,22.141534,74.190811,,
191,147,Panmahudi,Alirajpur,22.164011,74.150698,,
192,165,Temachi,Alirajpur,22.433,74.433,,
191,149,Kanthari,Alirajpur,22.136362,74.143664,,
192,167,Badiphata,Alirajpur,22.510128,74.420472,,
191,151,Kadavaniya,Alirajpur,22.107747,74.139159,,
192,169,Katkuna,Alirajpur,22.471031,74.337494,,
191,153,Chhakatla,Alirajpur,22.31838,74.286682,,
192,171,Haradasapur,Alirajpur,22.95,74.817,,
191,157,Bhopaliya,Alirajpur,22.099666,74.195188,,
192,174,Band,Alirajpur,22.587048,74.520505,,
191,159,Madhupllavi,Alirajpur,22.111255,74.231105,,
192,175,Arathi,Alirajpur,22.95,74.817,,
191,160,Ambaja,Alirajpur,22.0866666,74.25472222,,
192,176,"Indrasinh Ki Choki",Alirajpur,22.4,74.667,,
191,162,Silota,Alirajpur,22.25226,74.23458,,
192,178,Bilawat,Alirajpur,22.433,74.5,,
191,164,Bichholi,Alirajpur,22.103596,74.287008,,
192,180,Darkali,Alirajpur,22.05,74.172777,,
191,166,Akaladhara,Alirajpur,22.072664,74.228413,,
192,182,Chichalana,Alirajpur,22.433,74.4,,
192,249,Dekakund,Alirajpur,22.417,74.55,,
192,252,Ranajitgadh,Alirajpur,22.517,74.583,,
192,257,Kanawada,Alirajpur,22.433,74.65,,
192,260,Sevaria,Alirajpur,22.5,74.683,,
192,264,Umari,Alirajpur,22.4,74.667,,
192,266,Dehdala,Alirajpur,22.45,74.633,,
192,269,Wagadi,Alirajpur,22.383,74.567,,
192,270,Bhiti,Alirajpur,22.367,74.567,,
192,271,Umda,Alirajpur,22.35,74.567,,
192,272,Umda,Alirajpur,22.317,74.533,,
192,277,Khari,Alirajpur,22.317,74.6,,
192,278,Dabadi,Alirajpur,22.40173,74.59474,,
192,280,Indwan,Alirajpur,22.283,74.6,,
192,282,Salkheda,Alirajpur,22.283,74.617,,
191,198,Bejada,Alirajpur,22.0763888,74.3522222,,
192,211,Khattaleebadi,Alirajpur,22.35,74.583,,
192,275,Jamni,Alirajpur,22.317,74.583,,
191,165,Kiloda,Alirajpur,22.0994444,74.28583333,,
192,181,Bhordu,Alirajpur,22.04157,74.26976,,
191,205,Bayadiya,Alirajpur,22.107012,74.1686046,,
192,222,Jobat,Alirajpur,22.115555,74.4452777,,
191,122,Dabadi,Alirajpur,22.2319444,74.314444,,
192,133,Jambukheda,Alirajpur,22.565283,74.531116,,
191,84,Rajavat,Alirajpur,22.3199,74.368,,
192,95,"Amanakua , Jhotarada",Alirajpur,22.586057,74.415446,,
191,52,Gadat,Alirajpur,22.3199,74.368,,
192,54,Chhotipol,Alirajpur,22.567,74.233,,
191,58,Alirajapur,Alirajpur,22.307162,74.35705,,
192,63,Mahendra,Alirajpur,22.54732,74.2746,,
191,41,"Dipa Ki Chauki",Alirajpur,22.30974,74.3344408,,
192,38,Panaguda,Alirajpur,22.45,74.29,,
191,22,Sorwa,Alirajpur,22.22361111,74.22916666,,
192,21,Kabarisel,Alirajpur,22.469,74.168,,
191,19,Darakhad,Alirajpur,22.255024,74.264723,,
192,281,Kadwal,Alirajpur,22.267,74.617,,
192,19,Kadwal,Alirajpur,22.1772222,74.186666,,
191,152,Bayadiya,Alirajpur,22.1061111,74.1680555,,
192,170,Agoni,Alirajpur,22.43814,74.386464,,
191,1,Moriyaganv,Alirajpur,22.095375,74.35824,,
192,1,Kachhala,Alirajpur,23.03834,74.43418,,
191,3,Ambadaberi,Alirajpur,22.92017,74.85965,,
192,4,"Nani Badoi",Alirajpur,22.452024,74.121779,,
191,5,Jhadoli,Alirajpur,22.32653,74.07225,,
192,6,Khedabada,Alirajpur,22.428748,74.115196,,
191,7,Kelari,Alirajpur,22.2971,74.12186,,
192,8,Sajanpur,Alirajpur,22.40285,74.170544,,
191,9,Khundar,Alirajpur,22.264064,74.140248,,
192,10,Dhyana,Alirajpur,22.443792,74.164807,,
191,12,Kheda,Alirajpur,22.245582,74.096421,,
192,12,Kawchha,Alirajpur,22.47961,74.149807,,
191,189,Umarath,Alirajpur,22.04155,74.26974,,
192,205,Ubalad,Alirajpur,22.92013,74.85961,,
191,191,Chhotigendra,Alirajpur,22.063888,74.256944,,
192,207,Baladmung,Alirajpur,22.04155,74.26974,,
191,182,Dudhavi,Alirajpur,22.0058333,74.1353569,,
192,200,Dudalwat,Alirajpur,22.354466,74.494227,,
191,110,Eesadu,Alirajpur,22.20467,74.46124,,
191,133,Sagavara,Alirajpur,22.15803,74.268482,,
192,146,Jamalibadi,Alirajpur,22.517,74.533,,
191,86,Kodla,Alirajpur,22.300072,74.470514,,
192,98,Dwali,Alirajpur,22.568067,74.411015,,
191,229,Jhandana,Alirajpur,22.051666,74.464444,,
192,246,Semalda,Alirajpur,22.467,74.5,,
192,255,Kanawada,Alirajpur,22.45,74.6,,
191,228,Chameli,Alirajpur,22.0486111,74.44777,,
192,245,Bilasa,Alirajpur,22.4,74.483,,
191,214,Phadtla,Alirajpur,22.171111,74.4619444,,
192,231,Jali,Alirajpur,22.383,74.533,,
191,203,Darakali,Alirajpur,22.15083333,74.3427777,,
192,220,Jobat,Alirajpur,22.1305555,74.4763888,,
191,199,Kakadaval,Alirajpur,22.0866666,74.35083333,,
192,213,Khattaleechhoti,Alirajpur,22.3,74.617,,
191,155,Chhakatala,Alirajpur,22.04156,74.26975,,
192,172,Sagota,Alirajpur,22.95,74.817,,
191,145,Amba,Alirajpur,22.1825,74.1380555,,
192,163,Borajhad,Alirajpur,22.417,74.5,,
192,154,Juvaribadi,Alirajpur,22.467,74.567,,
191,142,Kundavat,Alirajpur,22.159435,74.166561,,
192,158,Dekakua,Alirajpur,22.467,74.517,,
191,144,Ratad,Alirajpur,22.185571,74.135766,,
192,162,Sevad,Alirajpur,22.45,74.433,,
192,199,Masani,Alirajpur,22.0763888,74.3522222,,
191,174,Bakhatagadh,Alirajpur,22.05777,74.2069444,,
192,190,"Ambua Phaliya",Alirajpur,22.04155,74.26974,,
191,29,Moradhi,Alirajpur,22.320199,74.17389,,
192,28,Dungaraganv,Alirajpur,22.451,74.275,,
192,273,Sindi,Alirajpur,22.317,74.55,,
191,227,Temala,Alirajpur,22.0658333,74.4452777,,
192,244,Kosaduna,Alirajpur,22.467,74.533,,
191,188,Gata,Alirajpur,22.021111,74.2113888,,
192,204,Siddhganv,Alirajpur,22.383,74.567,,
191,186,Attha,Alirajpur,22.217777,74.2761111,,
192,202,Hirapurachhoti,Alirajpur,22.367,74.6,,
191,170,Achapi,Alirajpur,22.072802,74.187542,,
192,186,"Chhota Undwa",Alirajpur,22.433,74.853,,
191,156,Jamli,Alirajpur,22.118888,74.1875,,
191,158,Katavad,Alirajpur,22.107892,74.221034,,
192,173,Amajhiri,Alirajpur,22.389443,74.354495,,
191,146,Pipalakanch,Alirajpur,22.172889,74.146291,,
192,164,Chhotaitara,Alirajpur,22.417,74.45,,
191,141,Badada,Alirajpur,22.162303,74.19778,,
192,156,Motaumar,Alirajpur,22.5,74.517,,
191,131,Ghoghalapur,Alirajpur,22.184498,74.273905,,
192,144,Udayagadh,Alirajpur,22.531871,75.538347,,
191,126,Athava,Alirajpur,22.1719444,74.3191666,,
192,137,Dhamanda,Alirajpur,22.533,74.467,,
191,101,Sejaganv,Alirajpur,22.289377,74.55426,,
192,109,Chhotakhutaja,Alirajpur,22.517,74.533,,
191,96,Nanpur,Alirajpur,22.268483,74.527849,,
191,98,Nanpur,Alirajpur,22.268483,74.527849,,
192,107,"Chhoti Malapur",Alirajpur,22.517,74.567,,
191,76,Girala,Alirajpur,22.270081,74.41025,,
192,82,Kheriyamalee,Alirajpur,22.568164,74.36726,,
191,71,Alirajapur,Alirajpur,22.3008333,74.35611111,,
191,193,Sakarja,Alirajpur,22.08152174,74.3034682,,
192,208,Kherva,Alirajpur,22.1152777,74.3930555,,
191,167,Chikali,Alirajpur,22.083409,74.208688,,
192,183,Badi,Alirajpur,22.417,74.4,,
191,91,Machhaliya,Alirajpur,22.27914,74.460271,,
192,103,Kuhiwav,Alirajpur,22.6,74.367,,
191,169,Chhinaki,Alirajpur,22.058685,74.207059,,
192,185,"Bada Undwa",Alirajpur,22.417,74.4,,
191,118,Borakoa,Alirajpur,22.18,74.3786111,,
192,130,Kanakakad,Alirajpur,22.6,74.367,,
191,67,Alirajapur,Alirajpur,22.2997222,74.3541666,,
192,73,"Barjhar , Toraniya",Alirajpur,22.6,74.35,,
191,64,Alirajapur,Alirajpur,22.3008333,74.3561111,,
192,70,Barajhar,Alirajpur,22.598415,74.245876,,
191,38,Ambari,Alirajpur,22.35073,74.308624,,
192,35,Ekadhadi,Alirajpur,22.43,74.33,,
191,8,Kel,Alirajpur,22.289646,74.165761,,
192,9,Ghodiyadara,Alirajpur,22.43543,74.159316,,
191,120,Dhanpur,Alirajpur,22.13752,74.17196,,
191,43,Gavhan,Alirajpur,22.27472,74.257751,,
192,41,Airan,Alirajpur,22.46,74.3,,
191,31,Chandapur,Alirajpur,22.25724,74.21579,,
192,31,Kanera,Alirajpur,22.368,74.329,,
191,16,Kumbhi,Alirajpur,22.190354,74.220452,,
192,17,Jholiya,Alirajpur,22.17361111,74.1727777,,
191,6,Dehari,Alirajpur,22.25317,74.08863,,
192,7,"Moti Badoi",Alirajpur,22.42346,74.12475915,,
192,268,Vanjyabayada,Alirajpur,22.383,74.6,,
192,250,Thapli,Alirajpur,22.433,74.583,,
191,136,Ambi,Alirajpur,22.159883,74.232707,,
192,150,Umeri,Alirajpur,22.04157,74.26976,,
191,129,Bilajhiri,Alirajpur,22.14166666,74.2836111,,
192,141,Pipalya,Alirajpur,22.55,74.517,,
192,262,Nehtada,Alirajpur,22.433,74.7,,
192,253,Gunjheri,Alirajpur,22.4,74.6,,
191,177,"Chhakanaki Mal",Alirajpur,22.01238,74.112587,,
192,195,Khandala,Alirajpur,22.07111111,74.293444,,
191,148,Pipalywat,Alirajpur,22.151927,74.137558,,
192,166,Kaluwat,Alirajpur,22.477463,74.38831,,
191,190,Umarath,Alirajpur,22.0247222,74.2547222,,
191,184,Mathavad,Alirajpur,22.01403985,74.14932563,,
191,116,Umarali,Alirajpur,22.1763888,74.3191666,,
191,112,"Thod Sindhi",Alirajpur,22.237777,74.405,,
191,140,Dedkunda,Alirajpur,22.132058,74.18069,,
191,109,"Chikhal Kui",Alirajpur,22.19688,74.4811,,
191,107,Ajanda,Alirajpur,22.31991,74.36801,,
191,99,Nanpur,Alirajpur,22.268483,74.527849,,
191,95,Phata,Alirajpur,22.168888,74.400277,,
191,93,"Dhol Kheda",Alirajpur,22.2325,74.4025,,
191,90,Titi,Alirajpur,22.280656,74.500442,,
191,83,"Chachariza Umda",Alirajpur,22.270846,74.440039,,
191,75,Borana,Alirajpur,22.314873,74.39678,,
191,45,Pithanpur,Alirajpur,22.274087,74.271722,,
191,37,Akola,Alirajpur,22.35073,74.308624,,
191,34,Agalagota,Alirajpur,22.37182,74.23265,,
191,28,Nichavas,Alirajpur,22.92015,74.85963,,
191,20,Mehani,Alirajpur,22.219997,74.251321,,
191,11,Andharkanch,Alirajpur,22.232528,74.077147,,
192,129,Akholi,Alirajpur,22.517,74.383,,
191,143,Phulmal,Alirajpur,22.181601,74.163675,,
192,160,Badaitara,Alirajpur,22.467,74.467,,
191,105,Javaniyan,Alirajpur,22.25412,74.53972,,
192,117,Mendha,Alirajpur,22.524082,74.380022,,
191,78,Kavathu,Alirajpur,22.321096,74.408947,,
192,85,"Sejawada Akhakharikuna",Alirajpur,22.592694,74.337385,,
191,13,Akalava,Alirajpur,22.202173,74.132438,,
192,13,Andharajhiri,Alirajpur,22.46875,74.131502,,
191,215,Delavani,Alirajpur,22.1511111,74.4716666,,
192,233,Ubagari,Alirajpur,22.40176,74.59477,,
191,172,Umari,Alirajpur,22.057777,74.2069444,,
192,188,Jhora,Alirajpur,22.0075,74.198888,,
191,161,Mundala,Alirajpur,22.091666,74.231111,,
192,177,"Indrasinh Ki Choki",Alirajpur,22.45,74.383,,
191,73,Rodadha,Alirajpur,22.246836,74.362206,,
192,79,Badakhutaja,Alirajpur,22.569999,74.307173,,
191,204,Darakali,Alirajpur,22.04155,74.26974,,
191,194,Khundi,Alirajpur,22.07111111,74.293444,,
191,68,Alirajpur,Alirajpur,22.2997222,74.3541666,,
191,65,Alirajpur,Alirajpur,22.3008333,74.35611111,,
191,62,Alirajpur,Alirajpur,22.30416666,74.35105555,,
191,59,Alirajpur,Alirajpur,22.307162,74.35705,,
191,47,Badadala,Alirajpur,22.245305,74.289559,,
192,283,Salkheda,Alirajpur,22.283,74.617,,
192,276,Jamni,Alirajpur,22.35,74.583,,
192,274,Sindi,Alirajpur,22.317,74.55,,
192,267,Dehdala,Alirajpur,22.367,74.6,,
192,265,Umari,Alirajpur,22.433,74.7,,
192,263,Nehatada,Alirajpur,22.4,74.667,,
192,261,Hardaspur,Alirajpur,22.483,74.7,,
192,258,Barkheda,Alirajpur,22.45,74.65,,
192,256,Kanwada,Alirajpur,22.45,74.617,,
192,254,Dewalai,Alirajpur,22.417,74.617,,
192,248,Baledi,Alirajpur,22.417,74.55,,
192,240,Undari,Alirajpur,22.40174,74.59475,,
192,238,"Kila Jobat",Alirajpur,22.40174,74.59475,,
192,232,Bagadi,Alirajpur,22.383,74.533,,
191,36,Akola,Alirajpur,22.282051,74.266,,
192,34,Chhotisardi,Alirajpur,22.432792,74.336433,,
191,39,Richhavi,Alirajpur,22.92014,74.85962,,
192,36,Pastar,Alirajpur,22.44,74.345,,
191,42,Chichalaguda,Alirajpur,22.31318614,74.3217054,,
192,39,Puniyawat,Alirajpur,22.46,74.3,,
191,44,Pithnpur,Alirajpur,22.298912,74.325039,,
192,42,"Chhota Bhavata",Alirajpur,22.499294,74.298802,,
192,259,Jameri,Alirajpur,22.45,74.65,,
191,179,Akadiya,Alirajpur,22.05,74.172777,,
192,197,Ghatwani,Alirajpur,22.417,74.717,,
191,138,Roshiya,Alirajpur,22.13843,74.2252,,
192,153,Jhirichhoti,Alirajpur,22.5,74.567,,
191,61,Alirajapur,Alirajpur,22.3108333,74.3538888,,
192,67,"Barajhar , Ratighati",Alirajpur,22.602261,74.617,,
192,64,Mahendra,Alirajpur,22.546307,74.270571,,
192,53,Roliganv,Alirajpur,22.517,74.333,,
192,49,"Chandra Shekhar Aajad Nagar",Alirajpur,22.539,74.301,,
192,47,"Chandra Shekhar Aajad Nagar",Alirajpur,22.533,74.317,,
191,168,Chhinaki,Alirajpur,22.051811,74.220747,,
192,184,"Ramsingh Ki Chauki",Alirajpur,22.417,74.55,,
191,171,Badibanakhad,Alirajpur,22.072222,74.2316666,,
192,187,Kund,Alirajpur,22.217777,74.2761111,,
191,173,Tharwata,Alirajpur,22.026111,74.2069444,,
192,189,"Ambua Kasba",Alirajpur,22.021111,74.2113888,,
192,217,Jobat,Alirajpur,22.15305555,74.4836111,,
192,110,"Chhota Khutaja",Alirajpur,22.55,74.417,,
192,105,Mathana,Alirajpur,22.583,74.417,,
192,99,Dewali,Alirajpur,22.6,74.333,,
192,96,Amankua,Alirajpur,22.585776,74.415446,,
192,94,Sanda,Alirajpur,22.59001,74.413163,,
192,92,Dungalwani,Alirajpur,22.615178,74.3822,,
192,90,Kakadwari,Alirajpur,22.627741,74.374676,,
192,88,Sejawada,Alirajpur,22.594774,74.337385,,
192,86,Sejawada,Alirajpur,22.594774,74.337385,,
192,83,Kheriyamalee,Alirajpur,22.565224,74.363016,,
192,80,Badakhutaja,Alirajpur,22.568721,74.31022,,
192,77,Ringol,Alirajpur,22.567,74.25,,
191,216,Guneri,Alirajpur,22.15305555,74.4836111,,
192,234,Paneri,Alirajpur,22.40176,74.59477,,
191,218,"Chhoti Hathawi",Alirajpur,22.1191666,74.495,,
192,235,Chohali,Alirajpur,22.417,74.55,,
191,219,Unhala,Alirajpur,22.1305555,74.4763888,,
192,236,Kalikhetar,Alirajpur,22.40174,74.59475,,
191,94,Phata,Alirajpur,22.3005464,74.47722,,
192,106,"Badi Kareti",Alirajpur,22.583,74.417,,
191,150,Dhorat,Alirajpur,22.12456,74.163683,,
192,168,Tokariyajhiran,Alirajpur,22.333,74.51,,
191,163,Puwasa,Alirajpur,22.11807,74.27235,,
192,179,Kharakhadi,Alirajpur,22.0586111,74.1886111,,
191,35,Bijoriya,Alirajpur,22.37182,74.23265,,
192,33,Badisardi,Alirajpur,22.517,74.5,,
191,82,Kharapi,Alirajpur,22.251823,74.463181,,
192,93,Sanda,Alirajpur,22.583,74.37488,,
191,85,Mayala,Alirajpur,22.3031135,74.42926,,
192,97,Amanakuan,Alirajpur,22.58855,74.416685,,
191,87,Kharkua,Alirajpur,22.289569,74.482128,,
192,100,Gerughatee,Alirajpur,22.6,74.333,,
191,124,"Badi Vegalaganv",Alirajpur,22.2011111,74.328888,,
192,135,Bhandakhapar,Alirajpur,22.554047,74.524679,,
191,103,Soliya,Alirajpur,22.3199,74.368,,
192,113,Bilajhar,Alirajpur,22.533,74.383,,
191,50,Somakua,Alirajpur,22.26373627,74.311046,,
192,50,Bhuraghata,Alirajpur,22.555,74.301,,
192,75,Ringol,Alirajpur,22.5,74.25,,
192,71,Barjhar,Alirajpur,22.517,74.333,,
192,68,"Ratighati Faliya Barjhar",Alirajpur,22.55,74.267,,
192,66,Borkundiya,Alirajpur,22.568067,74.244248,,
192,61,Badipol,Alirajpur,22.6,74.283,,
192,57,Koriyapan,Alirajpur,22.517,74.317,,
192,55,Chhotipol,Alirajpur,22.567,74.25,,
192,51,"Bhuraghata Kukshi",Alirajpur,22.483,74.333,,
192,40,Puniyawat,Alirajpur,22.46,74.3,,
192,121,Mayavat,Alirajpur,22.13752,74.17196,,
191,81,Lakshmni,Alirajpur,22.293383,74.427282,,
192,91,Dungalawani,Alirajpur,22.615297,74.377028,,
192,5,Khamadka,Alirajpur,22.448781,74.112681,,
191,220,Tikhola,Alirajpur,22.1327777,74.464444,,
192,237,Kilajobat,Alirajpur,22.40174,74.59475,,
191,10,Andharakamch,Alirajpur,22.232526,74.080864,,
192,11,"Bhuriya Bhuriya Amba",Alirajpur,22.451797,74.13788,,
192,241,Bhilkhedi,Alirajpur,22.4,74.53,,
191,224,Semalani,Alirajpur,22.098888,74.440555,,
192,242,Deganv,Alirajpur,22.432,74.51,,
191,225,Kukadiya,Alirajpur,22.0833333,74.4716666,,
192,243,Betvasa,Alirajpur,22.433,74.5,,
191,230,Kakarana,Alirajpur,22.051666,74.464444,,
192,247,Baledi,Alirajpur,22.45,74.517,,
192,116,"Bada Bhavata",Alirajpur,22.467,74.533,,
192,112,Kaliyawav,Alirajpur,22.483,74.567,,
191,4,Jhinjhana,Alirajpur,22.15317,74.31793,,
192,44,Lilumari,Alirajpur,22.5,74.317,,
192,23,Vej,Alirajpur,22.6,74.35,,
192,15,"Katthiwada Khas",Alirajpur,23.03835,74.43419,,
191,128,Chanota,Alirajpur,22.15888888,74.314444,,
192,139,Khandalarav,Alirajpur,22.55,74.483,,
191,40,Bhayadiyakichoki,Alirajpur,22.316391,74.26065,,
192,37,Koha,Alirajpur,22.463,74.336,,
191,113,Aali,Alirajpur,22.2094444,74.4261111,,
192,124,Javaniya,Alirajpur,22.567,74.3,,
191,46,Badadala,Alirajpur,22.244898,74.288609,,
192,43,Lilumari,Alirajpur,22.483,74.333,,
191,25,Moriyakabada,Alirajpur,22.92014,74.85962,,
192,24,Vav,Alirajpur,22.4512,74.275,,
192,72,Barjhar,Alirajpur,22.6,74.367,,
191,69,Alirajapur,Alirajpur,22.2997222,74.35416666,,
192,74,"Ringol , Ladivariya",Alirajpur,22.614752,74.30404,,
191,70,Alirajapur,Alirajpur,22.29972222,74.3541666,,
192,76,"Ringol , Ladivariya",Alirajpur,22.614118,74.307227,,
191,72,Ghoghasa,Alirajpur,22.3008333,74.3561111,,
192,78,Badakhutaja,Alirajpur,22.2738095,74.391472,,
191,175,Kherwada,Alirajpur,22.026662,74.166625,,
192,192,Adwada,Alirajpur,22.063888,74.256944,,
191,178,Keldikimal,Alirajpur,22.0586111,74.1886111,,
192,196,Khandala,Alirajpur,22.0486111,74.2930555,,
191,180,Vakaner,Alirajpur,21.993381,74.202478,,
192,198,Palasada,Alirajpur,22.0213888,74.3830555,,
191,181,Chichalavat,Alirajpur,22.011712,74.188554,,
191,183,Mathavad,Alirajpur,22.00679,74.120423,,
192,201,Hirapurabadi,Alirajpur,22.4,74.617,,
191,187,Sirakhadibadi,Alirajpur,22.0075,74.198888,,
192,203,Khutaja,Alirajpur,22.5,74.517,,
191,211,Khamat,Alirajpur,22.134444,74.4308333,,
191,209,Gulwat,Alirajpur,22.1363888,74.4286111,,
192,279,Dabadi,Alirajpur,22.40173,74.59474,,
191,24,Sorava,Alirajpur,22.92014,74.85962,,
191,32,Chandapur,Alirajpur,22.92015,74.85963,,
191,226,Mahalgaw,Alirajpur,22.083333,74.40694444,,
191,217,Badihathwi,Alirajpur,22.134444,74.4883333,,
191,213,Valapur,Alirajpur,22.1630555,74.45027777,,
192,27,Aamkhut,Alirajpur,22.451,74.275,,
192,59,Sejawada,Alirajpur,22.517,74.317,,
191,2,Phaliyamahu,Alirajpur,22.09055,74.34782,,
192,2,Kharakali,Alirajpur,22.382,74.369,,
192,30,Dobalajhiri,Alirajpur,22.433,74.5,,
192,3,Golamba,Alirajpur,22.495,74.119,,
192,230,Badaguda,Alirajpur,22.383,74.517,,
192,227,Kanda,Alirajpur,22.433,74.467,,
192,225,Jobat,Alirajpur,22.367,74.467,,
192,223,Jobat,Alirajpur,22.382,74.456,,
192,221,Jobat,Alirajpur,22.1327777,74.464444,,
192,219,Jobat,Alirajpur,22.1191666,74.495,,
192,206,Ubalad,Alirajpur,22.107012,74.1686046,,
192,194,Kanti,Alirajpur,22.08152174,74.3034682,,
192,191,"Aambua Faliya",Alirajpur,22.0247222,74.2547222,,
192,161,"Bada Itara",Alirajpur,22.467,74.433,,
192,159,Bawadi,Alirajpur,22.483,74.467,,
192,157,"Mota Umar",Alirajpur,22.467,74.55,,
192,155,"Juvari Chhoti",Alirajpur,22.483,74.55,,
192,152,"Jhiri Badi",Alirajpur,22.1175,74.7336111,,
192,147,"Jamali Chhoti",Alirajpur,22.533,74.533,,
192,143,Udaygadh,Alirajpur,22.530533,74.538315,,
192,122,"Chhoti Miriyawat",Alirajpur,22.55,74.317,,
192,215,"Kasba Jobat",Alirajpur,22.171111,74.4619444,,
192,212,Khattaleebadi,Alirajpur,22.04155,74.26974,,
192,140,"Lakshman Faliya",Alirajpur,22.567,74.517,,
192,127,Jhiran,Alirajpur,22.517,74.35,,
192,125,Jawaniya,Alirajpur,22.533,74.317,,
191,192,"Badi Gendra",Alirajpur,22.067028,74.27023,,
191,154,Chhakatla,Alirajpur,22.04156,74.26975,,
191,207,Sondwa,Alirajpur,22.1152777,74.3930555,,
191,196,"Fadatala Badi",Alirajpur,21.98041,74.29816,,
191,115,Umarali,Alirajpur,22.18,74.3594444,,
192,128,Jhiran,Alirajpur,22.517,74.367,,
191,88,Begadi,Alirajpur,22.26831,74.530038,,
192,101,Tatiamba,Alirajpur,22.6,74.333,,
191,57,Alirajapur,Alirajpur,22.3041666,74.35105555,,
191,54,Alirajapur,Alirajpur,22.3011,74.357,,
192,58,Borakaara,Alirajpur,22.57095,74.275616,,
191,14,Dokarabariya,Alirajpur,22.195806,74.179997,,
192,14,Katthiwada,Alirajpur,23.03835,74.43419,,
191,134,"Chhoti Utavali",Alirajpur,22.145505,74.251618,,
192,148,Panagola,Alirajpur,22.517,74.533,,
191,221,Kukalat,Alirajpur,22.115555,74.4452777,,
192,239,Undari,Alirajpur,22.40174,74.59475,,
192,251,Behadiya,Alirajpur,22.417,74.5832,,
191,176,Umarkhad,Alirajpur,22.024316,74.130761,,
192,193,Kotabu,Alirajpur,22.433,74.65,,
191,74,Harasavat,Alirajpur,22.29648,74.381395,,
192,81,Badakhutaja,Alirajpur,22.569147,74.303632,,
191,77,Seja,Alirajpur,22.299885,74.403754,,
192,84,Sejawada,Alirajpur,22.6,74.345239,,
191,79,Bhanarawat,Alirajpur,22.309296,74.461719,,
192,87,"Sejawada , Bariphaliya",Alirajpur,22.594774,74.337385,,
191,80,Kodali,Alirajpur,22.308074,74.436455,,
192,89,Kakadawari,Alirajpur,22.625808,74.373281,,
191,97,Nanpur,Alirajpur,22.268483,74.527849,,
192,119,Girdha,Alirajpur,22.467,74.467,,
192,114,"Chhoti Kareti",Alirajpur,22.549341,74.353489,,
191,15,Jharakali,Alirajpur,22.173902,74.173266,,
192,16,Karelimahudi,Alirajpur,22.3256,74.26348,,
191,18,18sumanyavat,Alirajpur,22.209396,74.269225,,
191,17,Sumanywat,Alirajpur,22.207486,74.268773,,
192,18,Rathaudi,Alirajpur,22.22327,74.26348,,
191,185,Kalibel,Alirajpur,22.018441,74.26173,,
191,21,Kalibel,Alirajpur,22.227777,74.268888,,
192,20,Bhajiyana,Alirajpur,22.52929,74.205616,,
191,23,Sorava,Alirajpur,22.267768,74.249822,,
192,22,Sayada,Alirajpur,22.227777,74.268888,,
191,26,Bokadiya,Alirajpur,22.318159,74.213371,,
192,25,Karha,Alirajpur,22.612,74.30571,,
191,27,Bokadiya,Alirajpur,22.92015,74.85963,,
192,26,Amakhut,Alirajpur,22.92014,74.85962,,
191,30,Kadavaliya,Alirajpur,22.299365,74.22495,,
192,29,Guda,Alirajpur,22.473,74.284,,
191,33,Agalagota,Alirajpur,22.92015,74.85963,,
192,32,Ambi,Alirajpur,22.401,74.319,,
87,18,"Sha Pra Sha Sha Bhawan Tummibar",Anuppur,23.0709,81.3254,,
87,20,"Sha Pra Sha Sha Bhawan Nidavan",Anuppur,23.0793,81.6207,,
87,22,"Sha Pra Sha Sha Bhawan Badhar",Anuppur,23.0131,81.3425,,
87,26,"Sha Pra Sha Sha Bhawan Jamudi",Anuppur,23.0434,81.3846,,
87,150,"Sha Pra Sha Sha Bhawan Mauhari",Anuppur,23.11811,81.73871,,
87,29,"Sha Pra Sha Bhawan Mouhari",Anuppur,23.0559,81.3857,,
87,31,"Sha Pra Sha Sha Bhawan Khamhariya",Anuppur,23.0604,81.3642,,
87,33,"Sha Ma Sha Bhawan Dhiroul",Anuppur,23.073,81.3534,,
87,105,"Panchayat Bhawan Kadamtola",Anuppur,23.1217,81.4644,,
87,107,"Sha Ha Se School Bhawan Phungaa",Anuppur,23.1453,81.4923,,
87,109,"Sha Pra Sha Sha Bhawan Chhulkari",Anuppur,23.1413,81.4652,,
87,112,"Sha Ma Sha Bhawan Joratalwa",Anuppur,23.1434,81.534,,
88,171,"Sha Pra Sha Sha Bhawan Sarwahi",Anuppur,22.5137,81.41,,
88,176,"Aganwadi Bhawan Bhimkundi",Anuppur,22.572,81.4427,,
88,177,"Sha Pra Sha Sha Bhawan Saraitola",Anuppur,22.583,81.4508,,
88,181,"Sha Sha Ju Ju High School Bhawan Khati",Anuppur,22.5757,81.4946,,
88,182,"Sha Pra Sha Sha Bhawan Dubariya Tola",Anuppur,22.5808,81.4849,,
88,183,"Govt Govt Middle School Building Mohandi",Anuppur,22.5851,81.4937,,
88,184,"Sha Pra Sha Sha Bhawan (navin) Harrai",Anuppur,22.5945,81.5201,,
88,190,"Govt Primaryschool Building Bashi",Anuppur,22.5533,81.5038,,
88,192,"Sha Pra Sha Sha Bhawan Bhelma",Anuppur,22.5613,81.5158,,
88,193,"Sha Pra Sha Sha Bhawan Thodipani",Anuppur,22.90724,81.7689,,
88,195,"Sha Pra Sha Sha Bhawan Semarwar",Anuppur,22.5532,81.5109,,
88,200,"Sha Pra Sha Sha Bhawan Chorbhati",Anuppur,22.5238,81.4439,,
86,15,"Govt Govt Praimary Scholl Building Godaru",Anuppur,23.31244,81.57042,,
86,17,"Govt Govt Primary School Building Chhulhatola",Anuppur,23.28652,81.85511,,
86,19,"Govt Govt Primary School Building Room No No 3 Lodhi",Anuppur,23.270445,81.910411,,
86,22,"Govt Govt Primary School Building Kamrantola",Anuppur,23.27744,81.91479,,
86,24,"Govt Govt Primary School Building Lalpur",Anuppur,23.181,81.58612,,
86,26,"Govt Govt Primary School Building Building Sarangarh",Anuppur,23.27745,81.9148,,
86,28,"Govt Govt Primary School Building Chhulha",Anuppur,23.295847,82.07232,,
86,103,"Govt Govt Ps Building, Thodha",Anuppur,23.1458,82.019,,
86,105,"Govt Govt Ps Building, Pairichua",Anuppur,23.26407,82.10103,,
86,107,"Govt Govt Junior Hs Building Room No 1, Baihatola",Anuppur,23.233187,82.076564,,
86,109,"Govt Govt Ms Building, Piparha",Anuppur,23.23481,82.14386,,
86,112,"Govt Govt Ra Ra Gan Gan Pra Pra Sha Sha Building, Dola",Anuppur,23.21861045,82.13409009,,
87,117,"Sha Pra Sha Sha Bhawan Kushiyara",Anuppur,23.1333,81.5219,,
87,119,"""bal Shi Ni U Ma V Kotama Kalari Ka Uttari Bhaga Pasan""",Anuppur,23.1236,81.5409,,
87,122,"Sha Ma Sha Bhawan Kotma Kalari Ka Kaksh 1 Pasan",Anuppur,23.19272082,81.87973939,,
87,124,"Esaisiel High School Kaksha 1 Pasan",Anuppur,23.112,81.5017,,
87,126,"Esaisiel High School Kaksha 3 Pasan",Anuppur,23.502,81.242,,
87,128,"Kotama Kalari Club Kaksha 2 Pasan",Anuppur,23.0357,81.4811,,
87,131,"Sha Ma Pra Sha Sha Bhawan Bhawan Jamuna Kalari Kaksh 1 Jamuna",Anuppur,23.1016,81.5149,,
87,134,"Sha Pra Kanya Shala Shala Shala Shala Jamuna Kalari",Anuppur,23.1898,81.9308,,
87,136,"Jamuna Kalari Club Ka Purvi Bhaga Jamuna",Anuppur,23.113,81.5552,,
87,137,"Jamuna Kalari Club Kapashchimi Bhaga Jamuna",Anuppur,23.113,81.5552,,
87,183,Bid,Anuppur,23.0236,81.4754,,
87,182,Paparodi,Anuppur,23.0236,81.4754,,
88,201,"Panchayat Bhawan Nigaura",Anuppur,22.74931,81.73656,,
88,152,"Govt Govt Praimary School building Salharo",Anuppur,22.478,81.2823,,
88,154,"Sha Pra Sha Sha Bhawan Pipraha",Anuppur,22.74931,81.73656,,
88,156,"Govt Govt Praimary School building Boda",Anuppur,22.4907,81.3124,,
88,158,"Sha Pra Sha Sha Bhawan Khursi",Anuppur,22.4912,81.3339,,
88,159,"Sha Pra Sha Sha Bhawan Paladongri",Anuppur,22.3304,81.33,,
88,14,"Sha Sha Pra Sha Bhawan Bhawan Ramna Sarkari",Anuppur,23.0621,81.165,,
88,16,"Sha Sha Pra Sha Bhawan Dongariya",Anuppur,23.419,81.2143,,
88,17,"Sha Kanya Pra Sha Sha Jaithari",Anuppur,23.347,81.2142,,
88,19,"Sha Sha Pra Sha Sha Bhawan Ahirgawan",Anuppur,23.226,81.1517,,
88,22,"Sha Sha Ju Ju Ha Ha Sha Sha Bhawan Khamroudh",Anuppur,22.5814,81.15,,
88,24,"Sha Sha Ma Sha Sha Bhawan Sarai",Anuppur,23.25511,81.3884,,
86,116,"Govt Govt Ps Building, Ramnagar Cpal Dafai",Anuppur,23.2223548,82.14384539,,
86,114,"Govt Govt Ps Building Ramnagar East Part, Dola",Anuppur,23.22308297,82.14360654,,
86,118,"Govt Govt Middle School Building, Banagavan",Anuppur,23.19185078,82.13355066,,
86,119,"Govt Govt Gs Building Room No 3 East Part, Vanagavan",Anuppur,23.19175334,82.13354986,,
86,121,"Govt Govt Hss Building Rajnagar Room No 3, Vanagavan",Anuppur,23.19059836,82.1339832,,
86,123,"Grap Professional Training Centre Rajnagar Sub Area Room No 2, Vanagavan",Anuppur,23.18491588,82.1196546,,
86,82,"Govt G Hss , East Part Kotama",Anuppur,23.1221,81.5846,,
86,84,"2 Ghhs Kotama",Anuppur,23.12211,81.58461,,
86,86,"Govt Govt Ms Kendra Kendra Centre Part Kotama",Anuppur,23.12331,81.58411,,
86,89,"Govt Govt Hss Boys Boys East Part Room No No 1 Kotama",Anuppur,23.1281,81.5845,,
86,92,"Govt Govt Ps Ps Buildind South Part Goinda",Anuppur,23.1039,81.5913,,
87,181,Chhatapatpar,Anuppur,23.0236,81.4754,,
87,179,Jariyari,Anuppur,23.0236,81.4754,,
87,163,Jaithari,Anuppur,23.0644,81.5151,,
87,141,"Sha Pra Sha Sha Bhawan Chhohari",Anuppur,23.0932,81.5735,,
87,132,"Sha Ma Sha Sha Bhawan Bhawan Jamuna Kalari Kaksh 2 Jamuna",Anuppur,23.1895,81.9308,,
87,127,"Kotama Kalari Club Kaksha 1 Pasan",Anuppur,23.0906,81.4853,,
87,121,"""bal Shi Ni U Ma V Kotama Kalari Ka Dakshini Bhaga Pasan""",Anuppur,23.1835,81.8502,,
87,74,"Sha Pra Sha Sha Bhawan Karratoala",Anuppur,23.0637,81.4225,,
87,67,"Gov Gov High Shcool Building Narth Room No No 25 Anuppur",Anuppur,23.1975,81.6996,,
87,52,"Sha Pra Sha Sha Bhawan Kaksh 1 Manpur",Anuppur,23.11811,81.73871,,
87,34,"Sha Pra Sha Sha Bhawan Chandavar",Anuppur,23.0728,81.3743,,
87,143,"Sha U Ma Sh Bhawan Room No 1 1 Latar",Anuppur,23.0932,81.5735,,
88,26,"Sha Sha Pra Sha Sha Bhawan Katurdona",Anuppur,23.032,81.1844,,
88,28,"Sha Sha Ju Ju Ha Ha Sha Sha Bhawan Jaraha",Anuppur,23.0,81.219,,
88,95,"Sha Sha Pra Sha Sha Bhawan Naugai",Anuppur,22.579,81.3526,,
88,97,"Sha Sha Pra Sha Sha Bhawan Dhanpuri",Anuppur,22.5513,81.3439,,
88,99,"Sha Sha Pra Sha Sha Bhawan Baghar",Anuppur,22.5452,81.3221,,
88,101,"Sha Sha Pra Sha Sha Bhawan Haveli",Anuppur,22.541,81.2925,,
88,104,"Govt Govt Praimary School building Dhirutola",Anuppur,22.558,81.2849,,
88,107,"Sha Sha Pra Sha Sha Bhawan Goga",Anuppur,22.2512,81.25,,
88,109,"Panchayat Bhawan Bamhani",Anuppur,22.5141,81.271,,
88,110,"Govt Govt Praimary School building Devra",Anuppur,22.512,81.269,,
88,113,"Pra Sha Sha Bhawan Kyotar",Anuppur,22.562,81.5328,,
88,115,"Ps Ps Building Gest Room Bhatti Tola Khetgawan",Anuppur,22.5333,81.3251,,
86,95,"Govt Govt Hss Boys East Part Kotma",Anuppur,23.1149,81.5916,,
86,96,"Govt Govt Ps Building East Part Lahsui",Anuppur,23.1149,81.5916,,
86,98,"Govt Govt Ms Building, Lahsui",Anuppur,23.26407,82.10103,,
86,101,"Govt Govt Ps Building, Gohandra",Anuppur,23.124,81.582,,
86,76,"Panchayat Bhawan Sakola",Anuppur,23.1132,81.5607,,
86,74,"2 M Shala kendra Burhanpur",Anuppur,23.277446,81.917481,,
86,158,"Govt Govt Ps Building, Shikarpur",Anuppur,23.0522,82.0206,,
86,154,"Govt Govt Ps Building Building Room No 2 Gambhirwatola",Anuppur,23.11811,81.73871,,
86,147,"Govt Govt Ms Building, Amadand",Anuppur,23.27745,81.9148,,
86,139,"Sha Sha A J A K K Hss Malga Room No 2",Anuppur,23.27745,81.9148,,
86,108,"Govt Govt Ps Building East Part , Beliachhot",Anuppur,23.233517,82.08675,,
86,156,"Govt Govt Ps Building, Chodi",Anuppur,23.0534,81.5943,,
87,139,"Kanvent School Jamuna",Anuppur,23.1024,81.3557,,
87,135,"""samu Bhawan (esaisila) Jamunamainas Jamunamainas Purvi Bhaga Jamuna""",Anuppur,23.111,81.5252,,
87,85,"Sha Pra Sha Sha Bhawan Barri",Anuppur,23.0512,81.4216,,
87,86,"Sha Pra Sha Sha Bhawan Harri",Anuppur,23.0512,81.4216,,
87,88,"Sha Pra Sha Sha Bhawan Kaksh 1 Pasla",Anuppur,23.0403,81.4456,,
87,90,"Jaldatola Sha Pra Sha Sha Bhawan Bijaudi",Anuppur,23.0754,81.4344,,
87,92,"Sha Pra Sha Sha Bhawan Majhgawan",Anuppur,23.0832,81.4346,,
87,96,"Sha U Ma V V Bhawan Kamra N0 2 Bamhni",Anuppur,23.0927,81.4555,,
87,99,"Sha Pra Sha Sha Bhawan Mouhari Badi",Anuppur,23.11811,81.73871,,
87,103,"Sha Ma Sha Sha Bhawan Bhawan Kaksh 2 Amalai",Anuppur,23.1115,81.4814,,
87,80,"Sha Pra Sha Sha Bhawan Room No 2 Pipariya",Anuppur,23.0241,81.4148,,
87,78,"Sha Pra Sha Sha Bhawan Kansha",Anuppur,23.031,81.4121,,
88,125,"Sha Sha Pra Sha Sha Bhawan Bendi",Anuppur,23.0113,81.4153,,
88,127,"Sha Sha Ps Ps Sha Sha Bhawan Ka Purvi Bhag Basniha",Anuppur,23.0304,81.4429,,
88,129,"Sha Sha Pra Sha Sha Bhawan Lakhaura",Anuppur,23.0037,81.4657,,
88,132,"Sha Kanya Kanya Pra Sha Sha Bhawan Kirgi Rajendragaram",Anuppur,22.5941,81.4436,,
88,135,"Govt Govt Praimary School building Room No No 1 Dharmdas",Anuppur,22.5449,81.3849,,
88,137,"Sha Sha Pra Sha Sha Bhawan Kholaiya",Anuppur,22.542,81.415,,
88,139,"Sha Sha Pra Sha Sha Bhawan Pagna",Anuppur,22.524,81.3935,,
88,141,"Panchayat Bhawan Jhaintal",Anuppur,22.5139,81.3959,,
88,143,"Sha Sha Pra Sha Sha Bhawan Kholadi",Anuppur,22.5013,81.3419,,
88,144,"Sha Sha Pra Sha Sha Bhawan Padri",Anuppur,23.25512,81.38841,,
88,146,"Rajiv Gandhi Gandhi Praimary School building Majhgawan",Anuppur,23.25512,81.38841,,
88,148,"Govt Govt Middle School building Johili",Anuppur,22.504,81.2917,,
88,150,"Sha Sha Ju Ju High School Bhawan Kachh 2 Karaundi",Anuppur,22.4949,81.2819,,
88,188,"Sha Pra Sha Sha Bhawan Belgawan",Anuppur,22.558,81.4348,,
88,185,"Sha Pra Sha Sha Bhawan Miriya",Anuppur,22.90729,81.76895,,
88,179,"Sha Sha Ma Ma Sha Sha Bhawan Kumharwar",Anuppur,22.5918,81.4851,,
88,138,"Sha Sha Ju Ju Ha Ha Sha Sha Bhawan Gaurela",Anuppur,22.5338,81.419,,
88,178,"Sha Pra Sha Sha Bhawan Karaundatola",Anuppur,22.5813,81.4809,,
88,118,"Sha Sha Ju Ju Ha Ha Sha Sha Bhawan Rausharkhar",Anuppur,22.5434,81.3643,,
88,121,"Sha Sha Pra Sha Sha Bhawan Guttipara",Anuppur,23.0237,81.73875,,
88,123,"Sha Sha Pra Sha Sha Bhawan Keshwani",Anuppur,22.5659,81.3919,,
88,173,"Sha Pra Sha Sha Bhawan Bilasapur",Anuppur,22.5305,81.415,,
87,171,Kalyanpur,Anuppur,23.0439,81.4745,,
87,165,Jaithari,Anuppur,23.0925,81.5118,,
87,157,"Sha Pra Sha Sha Bhawantakhuli",Anuppur,23.11811,81.73871,,
87,147,"Sha Pra Sha Sha Bhawan Kikripondi",Anuppur,23.0932,81.5735,,
87,110,"Sha Pra Sha Sha Bhawan Raksha",Anuppur,23.1453,81.4923,,
87,168,Sivani,Anuppur,23.054,81.4911,,
87,169,Sivani,Anuppur,23.053,81.4724,,
87,100,"Sha Ma Sha Bhawan Muddhowa",Anuppur,23.1181,81.7387,,
87,98,"Sha High School Bhawan Kaksh No No ? Chhilpa",Anuppur,23.11811,81.73871,,
87,47,"Sha Ma Sha Bhawan Ka Purvi Bhag Kelhouri",Anuppur,23.111,81.3745,,
87,140,"Sha Ma Sha Sha Bhawan Harad",Anuppur,23.0932,81.545,,
87,142,"Sha Pra Sha Sha Bhawan Parasi",Anuppur,23.0932,81.5735,,
86,99,"Govt Govt Ps Building Changeri",Anuppur,23.1343,81.5854,,
86,97,"Govt, Ps Building East Part Lahasui",Anuppur,23.1149,81.5916,,
86,125,"Panchayat Bhawan New Building Room 2,vanagavan",Anuppur,23.18490882,82.11983557,,
86,127,"Govt Govt Ps Building Room No 1, Shantinagar, Vanagavan",Anuppur,23.18482239,82.11658489,,
86,130,"Govt Govt Ps Building, Bhalmudi",Anuppur,23.16830216,82.12378029,,
86,152,"Govt Govt Ps Building Building Room No 1 Bhad",Anuppur,23.0627,81.5712,,
86,133,"Govt Govt Ps Building, Dumarakachhar",Anuppur,23.16887733,82.12770415,,
86,126,"Community Hall Hall Room Room 1, Vanagavan",Anuppur,23.18480982,82.11654344,,
86,122,"Grap Professional Training Centre Rajnagar Sub Area Room No 1 Vanagavan",Anuppur,23.19063876,82.13401388,,
86,117,"Govt Govt Ps Building Ramnagar West Part",Anuppur,23.19216887,82.13303428,,
86,102,"Govt Govt Ps Building, Baskhala",Anuppur,23.02053,81.89063,,
86,93,"Govt Govt Ps Bulding South Part Goinda",Anuppur,23.1311,81.5831,,
88,169,"Sha Pra Sha Sha Bhawan Ghuidadar",Anuppur,22.4815,81.3913,,
88,164,"Sha Sha Ju Ju High School Bhawan Kyolari",Anuppur,22.4613,81.3448,,
88,163,"Sha High School Bhawan Damehdi",Anuppur,22.4514,81.3218,,
88,162,"Sha Pra Sha Sha Bhawan Bhawan (tikri Tola ) Damehdi",Anuppur,22.7493,81.73655,,
88,160,"Sha Pra Sha Sha Bhawan Bijaura",Anuppur,22.3148,81.323,,
88,145,"Panchayat Bhawan Baihar",Anuppur,22.5032,81.331,,
88,126,"Sha Sha Pra Sha Sha Bhawan Jeelang",Anuppur,22.5955,81.433,,
88,116,"Sha Sha Pra Sha Sha Bhawan Gannaguda",Anuppur,22.5323,81.3529,,
88,111,"Sha Sha Pra Sha Sha Bhawan Baidra",Anuppur,22.5238,81.292,,
88,108,"Sha Sha Pra Sha Sha Bhawan Saraitola",Anuppur,22.5644,81.2543,,
88,94,"Sha Sha Pra Sha Sha Bhawan Naugawan",Anuppur,23.25513,81.38842,,
87,145,"Sha Ma Sha Sha Bhawan Padouar",Anuppur,23.0932,81.5735,,
87,146,"Sha Pra Sha Sha Bhawan Kotami",Anuppur,23.0932,81.5735,,
87,148,"Sha Pra Sha Sha Bhawan Dhurvasin",Anuppur,23.0932,81.5735,,
87,152,"Sha Boy Pra Sha Sha Amagvan",Anuppur,23.11811,81.73871,,
87,151,"Sha Pra Sha Sha Bhawan Amagvan",Anuppur,23.11811,81.73871,,
87,154,"Sha Pra Sha Sha Bhawan Chandpur",Anuppur,23.11811,81.73871,,
87,156,"Sha Pra Sha New New Bhawan Kyontar",Anuppur,23.11811,81.73871,,
87,158,Pachouhan,Anuppur,23.0941,81.5456,,
87,161,Jaithari,Anuppur,23.1024,81.5557,,
87,162,Jaithari,Anuppur,23.0548,81.5336,,
87,164,Jaithari,Anuppur,23.0826,81.5217,,
87,167,Jaithari,Anuppur,23.0545,81.4904,,
87,170,Balabhara,Anuppur,23.053,81.4724,,
88,86,"Sha Sha Pra Sha Sha Bhawan Padrikhar",Anuppur,22.5934,81.3237,,
88,64,"Sha Sha Pra Sha Sha Bhawan Khalhedoodhi",Anuppur,22.6426,81.033,,
88,59,"Sha Sha Pra Sha Sha Bhawan Ranaikapa",Anuppur,23.25513,81.38842,,
88,78,"Sha Sha Pra Sha Sha Bhawan Dubsara",Anuppur,22.5559,81.2527,,
88,79,"Sha Sha Pra Sha Sha Bhawan Basantpur",Anuppur,22.5551,81.2552,,
88,81,"Sha Sha Pra Sha Sha Bhawan Devri",Anuppur,22.5543,81.282,,
88,83,"Sha Sha Pra Sha Sha Bhawan Pipriya",Anuppur,22.565,81.3017,,
88,85,"Sha Sha Pra Sha Sha Bhawan Manpur",Anuppur,22.566,81.3126,,
88,88,"Govt Govt Praimary School building Kohka",Anuppur,22.5923,81.304,,
88,90,"Panchayat Bhawan Mauhari",Anuppur,23.25511,81.3884,,
88,93,"Govt Govt Praimary School building Bhamraha",Anuppur,22.5826,81.381,,
86,68,"Govt Govt Primary School Building Building Jamuniha",Anuppur,23.254167,81.897414,,
86,63,"Govt Govt Primary School Building Building Gadhi",Anuppur,23.174432,81.59217,,
86,48,"Govt Govt Girls Girls H S S S School Room No No 3 Bijuri",Anuppur,23.251452,82.117281,,
86,29,"Govt Govt Primary School Building Bhathadand",Anuppur,23.26409,82.10105,,
86,135,"Sindhi Society Purva Ma Sha Bhawan Kamra No 1 Jheemar Collery Dumarkachhar",Anuppur,23.16799409,82.13808596,,
86,131,"Sindhi Sociaty Ps Building Room No 1, Dumarakachhar",Anuppur,23.16833707,82.12383448,,
86,129,"Govt Govt Ps Building Room No 3 Shantinagar Vangavan",Anuppur,23.25344674,82.1121439,,
86,132,"Sindhi Sociaty Ps Building Room No 2, Dumarakachhar",Anuppur,23.16892667,82.12774353,,
86,134,"Panchayat Bhawan Bhawan Room No 2, Dumarakachhar",Anuppur,23.16794533,82.13805407,,
86,136,"Sindhi Society Purva Ma Sha Bhawan Kamra No 2 Jheemar Collery Dumarkachhar",Anuppur,23.16788017,82.13804731,,
86,137,"Sindhi Society Purva Ma Sha Bhawan Kamra No 3 Jheemar Collery Dumarkachhar",Anuppur,23.14297609,82.07630427,,
87,155,"Sha Pra Sha Sha Bhawan Purana Tola Tola Kyontar",Anuppur,23.11811,81.73871,,
87,176,Kukurgoda,Anuppur,23.0257,81.4949,,
87,174,Padariya,Anuppur,23.0553,81.4946,,
87,153,"Sha Pra Sha Sha Bhawan Gunvari",Anuppur,23.11811,81.73871,,
87,149,"Sha Pra Sha Sha Bhawan Mahuda",Anuppur,23.0932,81.5735,,
87,115,"Sha Ma Sha Sha Sakola Ka South Part",Anuppur,23.1345,81.5225,,
87,87,"Sha Pra Sha Sha Bhawan Bhagatbandh",Anuppur,23.0442,81.4456,,
87,83,"Sha Pra Sha Bhawan Beliya",Anuppur,23.0332,81.4341,,
87,76,"Sha Pra Sha Sha Bhawan Dudhamania",Anuppur,23.0531,81.412,,
87,59,"Sha Kanya High School School Earth Part 2 Samatpur",Anuppur,23.1197,81.6996,,
87,45,"Sha U Ma V V Bhawan Uttri Bhag 3 Ka Kaksh 2 Chachai",Anuppur,23.101,81.4,,
87,32,"Sha High School Dhiroul",Anuppur,23.073,81.3534,,
88,73,"Sha Sha Pra Sha Sha Bhawan Pipartala Pu Bhawan Kachhharatola",Anuppur,22.5149,81.2231,,
88,69,"Sha Sha Pra Sha Sha Bhawan Mediyaras",Anuppur,23.25513,81.38842,,
88,218,"Sha Pra Sha Sha Bhawan Pondi",Anuppur,22.4841,81.4618,,
88,207,"Sha Pra Sha Sha Bhawan Kadamsara",Anuppur,22.4954,81.425,,
88,206,"Sha Pra Sha Sha Bhawan Bhelma",Anuppur,22.4954,81.425,,
88,151,"Govt Govt Praimary School building Dharharkala",Anuppur,22.4716,81.2823,,
88,147,"Sha Pra Sha Sha Bhawan Purvi Bhag Achalpur",Anuppur,22.508,81.2937,,
88,140,"Sha Sha Pra Sha Sha Bhawan Gobari",Anuppur,22.5224,81.383,,
88,131,"Sha Sha High School Bhawan Rajendragaram",Anuppur,22.74927,81.73652,,
88,130,"Sha Sha Pra Sha Sha Bhawan Kachhh 1 Kirgi",Anuppur,23.25512,81.38841,,
88,225,"Govt Primaryschool Building Doniya",Anuppur,22.4032,81.4528,,
86,140,"Govt Govt Ps Building Room No 1 Fulkona",Anuppur,23.19792753,82.06341552,,
86,142,"Govt Govt Boys Ps Building Harri",Anuppur,23.11809,81.73864,,
86,144,"Govt Govt Ps Building Building East Part Ura",Anuppur,23.0843,81.0401,,
86,146,"Govt Govt Ps Building Building Room No 1 Kuhka",Anuppur,23.27452,81.97073,,
86,148,"Govt Govt Ps Building, Majhouli",Anuppur,23.0843,82.0231,,
86,150,"Govt Govt Ps Building, Payari",Anuppur,23.0751,81.592,,
86,151,"Govt Govt Ps Building, Nimha",Anuppur,23.0842,81.5832,,
86,153,"Govt Govt Ps Building Building Room No 1 Darsagar",Anuppur,22.90731,81.76892,,
86,155,"Govt Govt Hss Hss Room No 1, Pondi",Anuppur,23.53801,81.5824,,
86,157,"Govt Govt Ps Building, Barbaspur",Anuppur,23.0624,82.01,,
86,145,"Govt Govt Ps Building Jamudi",Anuppur,23.0905,82.021,,
86,163,"Govt Govt Ps Building, Baratarai",Anuppur,23.36,82.38,,
87,19,"Sha Pra Sha Sha Bhawan Amiliha",Anuppur,23.0635,81.3452,,
87,12,"Sha Pra Sha Sha Bhawan Sanjay Nagar Kaksh 2 Devhara",Anuppur,23.0836,81.3552,,
87,46,"Sha U Ma V V Bhawan Ka Dakshini Bhag Chachai",Anuppur,23.101,81.4,,
87,48,"Sha Ma Sha Sha Kanya Bhawan Kelhouri",Anuppur,23.111,81.3745,,
87,50,"Sha Pra Sha Sha Bhawan Kodaili",Anuppur,23.1218,81.4109,,
87,51,"Sha Pra Sha Sha Bhawan Kaksh 1 Pondi",Anuppur,23.124,81.4109,,
87,53,"Sha Pra Sha Sha Bhawan Kaksh 1 Khanda",Anuppur,23.1133,81.4229,,
87,55,"Sha Pra Sha Sha Bhawan Barbaspur",Anuppur,23.0914,81.4212,,
87,61,"Sha Sha Kanya Ha Se Se School Naya Bhawan Ka Dak Dak Bhag Room No 3 Samatpur",Anuppur,23.1181,81.7387,,
87,63,"Janpad Panchayat Bhawan Anuppur",Anuppur,23.1181,81.7387,,
87,35,"Sha Pra Sha Sha Bhawan Chakethi",Anuppur,23.081,81.3754,,
87,38,"Sha U Ma V V Mediyaras",Anuppur,23.0845,81.3907,,
88,223,"Panchayat Bhawan Ledhra",Anuppur,22.4032,81.4528,,
88,211,"Sha Pra Sha Sha Bhawan Sulkhari",Anuppur,22.4755,81.4355,,
88,209,"Sha High School Bhawan Pashchimi Bhag Venkatnagar",Anuppur,22.74932,81.73658,,
88,189,"Sha Pra Sha Sha Bhawan Umaniya",Anuppur,22.5733,81.5508,,
88,187,"P S Building Nonghati",Anuppur,22.5929,81.4915,,
88,203,"Sha Sha Ma Ma Sha Sha Bhawan Lapata",Anuppur,22.595,81.3034,,
88,103,"Sha Sha Pra Sha Sha Bhawan Harratola",Anuppur,23.2321,81.2,,
88,80,"Sha Sha Pra Sha Sha Bhawan Kanchanpur",Anuppur,22.564,81.2718,,
88,76,"Sha Sha Pra Sha Sha Bhawan Dhummakapa",Anuppur,22.5521,81.2236,,
88,67,"Sha Sha Pra Sha Sha Bhawan Ghoghari",Anuppur,22.544,81.204,,
88,57,"Sha Sha Pra Sha Sha Bhawan Salargondi",Anuppur,22.342,81.502,,
88,53,"Sha Sha Pra Sha Sha Bhawan Uphri Khurd",Anuppur,22.5612,81.1833,,
87,40,"Sha Ma Sha Bhawan Dewri",Anuppur,23.0939,81.3736,,
87,43,"Sha Pra Sha Sha Bhawan Chachai Basti",Anuppur,23.101,81.4,,
87,138,"jamuna Kalari club ka central part jamuna",Anuppur,23.113,81.5552,,
87,144,"Sha U Ma V Bhawan Room Room No ? ? Latar",Anuppur,23.0932,81.5735,,
87,166,"Community Hall Near by Vetenary Hospital 	jaithari",Anuppur,23.0925,81.5118,,
87,58,"Sha K Ha Sai School Purana Bhawan Samatpur",Anuppur,23.1197,81.6996,,
87,56,"Sha Pra Sha Sha Bhawan Samatpur",Anuppur,23.1197,81.6996,,
87,64,"Sha Ha Se Shcool Bhawan Ka Purvi Kaksh 1 Anuppur",Anuppur,23.1181,81.7387,,
87,69,"Samudayik Bhawan Basti Anuppur",Anuppur,23.1975,81.6996,,
87,65,"Gov Gov High Secondary Shcool Building Earth Room No No 2 Anuppur",Anuppur,23.1181,81.7387,,
87,172,Dhangavan,Anuppur,23.0511,81.4843,,
87,173,Dhangavan,Anuppur,23.0553,81.4946,,
86,161,"Govt Govt Ps Building, Bhedwatola",Anuppur,23.0644,82.0618,,
86,143,"Govt Govt Ps Building Khodri",Anuppur,23.11819,81.738963,,
86,111,"Govt Govt Ps Building Room No 1, Dola",Anuppur,23.19816239,82.13834716,,
86,85,"Govt Govt Ghss South Part Kotama",Anuppur,23.1233,81.5843,,
86,80,"2 M M School Kotama",Anuppur,23.1147,81.5645,,
86,70,"Govt Govt Primary School Building Building Chathatola",Anuppur,23.27745,81.9148,,
86,61,"Govt Govt Primary School Building Nagarabandh",Anuppur,23.2486,82.08995,,
86,57,"H S S S Bijuri village Lohsara",Anuppur,23.2547682,82.10902723,,
86,54,"2 2 Middle school Arjunghat Arjunghat Bijuri",Anuppur,23.24967723,82.12735468,,
86,39,"Govt Govt Primary School Building Mauhari Khurd",Anuppur,23.268086,82.123598,,
86,27,"Govt H S S Building Room No No 1 Nigwani",Anuppur,23.1853,82.04563,,
86,16,"Govt Govt Middle Scholl Building Pakariyatola",Anuppur,23.31254,81.85583,,
88,165,"Sha Pra Sha Sha Bhawan Shivnisangam",Anuppur,22.4653,81.3519,,
88,50,"Sha Sha Pra Sha Sha Bhawan Rakhital",Anuppur,22.5927,81.2243,,
88,39,"Pra Sha Sha Bhawan Lamsari",Anuppur,23.056,81.3118,,
88,27,"Sha Sha Pra Sha Sha Bhawan Suadand",Anuppur,23.25515,81.38844,,
88,15,"Rajeev Gandhi P Shala Shala Bhawan Kumhani",Anuppur,23.27747,81.91482,,
88,9,"Sha Sha Pra Sha Bhawan	silwari",Anuppur,23.845,81.1259,,
88,100,"Sha Sha Pra Sha Sha Bhawan Girarikhurd",Anuppur,22.5516,81.3318,,
88,198,"Sha Pra Sha Sha Bhawan Patan",Anuppur,22.5447,81.4837,,
88,172,"P Shala Bhawan Kekariya",Anuppur,22.5156,81.3944,,
88,168,"Sha Pra Sha Sha Bhawan Purga",Anuppur,22.4846,81.3759,,
88,149,"Govt Middle School Building Sonhara",Anuppur,22.4949,81.2819,,
88,91,"Sha Sha Pra Sha Sha Bhawan Parselkala",Anuppur,22.5754,81.3848,,
87,175,Choi,Anuppur,23.0402,81.4858,,
87,177,Cholana,Anuppur,23.0247,81.4858,,
87,178,Cholana,Anuppur,23.0247,81.4858,,
87,180,Khuntatola,Anuppur,23.0236,81.4754,,
87,4,"Sha Pra Sha Sha Bhawan Bargavan",Anuppur,23.18659,81.606,,
87,6,"Sha Ma Sha Bhawan Bargawan Amlai Station",Anuppur,23.1704,81.5928,,
87,3,"Sha Pra Sha Sha Bhawan Baragavan",Anuppur,23.18659,81.606,,
87,7,"Sha Pra Sha Bhawan Bargawan Amlai Station",Anuppur,23.1704,81.5928,,
87,8,"Sha High School Amlai Kalari Kaksh 2 Devhara",Anuppur,23.0836,81.3552,,
87,10,"Sha High Shcool Kalari Kaksh 4, Devhara",Anuppur,23.0836,81.3552,,
87,11,"Sha Pra Sha Sha Bhawan Sanjay Nagar Kaksh 5 Devhara",Anuppur,23.0836,81.3552,,
87,13,"Sha Pra Sha Sha Bhawan Sanjay Nagar",Anuppur,23.0836,81.3552,,
88,89,"Sha Sha Pra Sha Sha Bhawan Jatanga",Anuppur,22.5918,81.3517,,
88,63,"Govt Govt Praimary School building Chakumar",Anuppur,22.4517,81.101,,
88,41,"Sha Sha Pra Sha Sha Bhawan Devri Dadar",Anuppur,23.026,81.2826,,
88,38,"Sha Sha Pra Sha Sha Bhawan Alhwar",Anuppur,23.04,81.321,,
88,133,"Sha Sha Pra Sha Sha Bhawan Kohka",Anuppur,23.25513,81.38842,,
88,36,"Sha Sha Pra Sha Sha Bhawan Beejapuri",Anuppur,23.413,81.3135,,
88,34,"Sha Sha Pra Sha Sha Bhawan Nagmala",Anuppur,23.25515,81.38844,,
88,25,"Sha Sha Pra Sha Sha Bhawan Tarang",Anuppur,22.592,81.1844,,
88,142,"Sha Sha Pra Sha Sha Bhawan Anjani",Anuppur,22.5119,81.3841,,
88,114,"Sha Sha Ma Ma Sha Sha Bhawan Khetganw",Anuppur,23.25513,81.38842,,
88,102,"Sha Sha Pra Sha Sha Bhawan Shivrichandas",Anuppur,23.5543,81.301,,
88,96,"Sha Sha Ma Ma Sha Sha Bhawan Ka Purvi Bhag Patna",Anuppur,22.568,81.3532,,
86,10,"Govt Govt Primary School Building Tarasili",Anuppur,23.350617,82.04925,,
86,7,"Govt H S S North part Kothi",Anuppur,23.26406,82.10102,,
86,40,"Govt Govt Primary School Building East Part Mouhari Mines",Anuppur,23.26815033,82.12363252,,
86,42,"Govt Govt Primary School Building West Part Mouhari Mains",Anuppur,23.26795464,82.12519089,,
86,45,"Govt Govt Girl Middle School Room No 2 Bijuri",Anuppur,23.252621,82.114767,,
86,46,"Govt Govt Girls H S S S Room No No 1 Bujuri",Anuppur,23.252452,82.117281,,
86,49,"Govt Govt Girls middle School Room No No 2 Bijuri",Anuppur,23.257587,82.13234,,
86,52,"Ramkrashn Mission School Room No No 2 Kapildhara Colony Padar",Anuppur,23.25758799,82.13234468,,
86,55,"Govt Govt Primary School west Part Padaripani",Anuppur,23.249677,82.12735468,,
86,56,"Govt Govt Primary School Building Korja",Anuppur,23.2363885,82.09989418,,
86,58,"C L K K K H S S S Bijuri village Lohsara",Anuppur,23.25517698,82.10827255,,
87,16,"Sha Ma Sha Bhawan Patnakala",Anuppur,23.073,81.3534,,
87,15,"Sha Ma Sha Bhawan Patnakala",Anuppur,23.073,81.3534,,
87,36,"Sha Pra Sha Sha Bhawan Parasvar",Anuppur,23.0705,81.3954,,
87,28,"Sha U Ma Vi Vi Bhawan Sakra",Anuppur,23.0448,81.3739,,
87,24,"Sha Pra Sha Sha Bhawan Odhera",Anuppur,23.1181,81.7387,,
87,23,"Sha Pra Sha Sha Bhawan Kirar",Anuppur,23.0046,81.3644,,
87,21,"Sha Pra Sha Sha Bhawan Barhatola",Anuppur,23.0604,81.3548,,
87,17,"Sha Pra Sha Sha Bhawan Dongratola",Anuppur,23.0644,81.3414,,
87,14,"Sha Pra Sha Sha Bhawan Kholi, Devhara",Anuppur,23.0836,81.3552,,
87,9,"Sha Ma Sha Bhawan Devhara",Anuppur,23.0836,81.3552,,
87,5,"Sha Ha Se Shcool Amlai Collary Bargavan",Anuppur,23.2912,81.57985,,
87,44,"Sha U Ma V V Bhawan Uttri Bhag 3 Ka Kaksh 1 Chachai",Anuppur,23.101,81.4,,
88,40,"Sha Sha Pra Sha Sha Bhawan Gonda",Anuppur,23.595,81.3034,,
88,42,"Sha Sha Pra Sha Sha Bhawan Chilihamar",Anuppur,23.048,81.291,,
88,44,"Sha Sha Pra Sha Sha Bhawan Padri",Anuppur,23.25514,81.38843,,
88,45,"Govt Govt Praimary School building Dudhmaniya",Anuppur,22.5529,81.2548,,
88,47,"Sha Sha Pra Sha Sha Bhawan Picharwahi",Anuppur,23.25511,81.3884,,
88,49,"Sha Sha Pra Sha Sha Bhawan Nagula",Anuppur,22.5927,81.2243,,
88,51,"Sha Sha Pra Sha Sha Bhawan Bartola",Anuppur,22.5636,81.2224,,
88,54,"Sha Sha Pra Sha Sha Bhawan Nagulidadar",Anuppur,23.25511,81.3884,,
88,56,"Sha Sha Pra Sha Sha Bhawan Medhakhar",Anuppur,22.474,81.1025,,
88,58,"Sha Sha Pra Sha Sha Bhawan Saraipatera",Anuppur,22.151,81.251,,
88,153,"Sha Sha Ju Ju High School Bhawan Pathaiti",Anuppur,22.4724,81.3004,,
88,170,"Sha Pra Sha Sha Bhawan Kasturi",Anuppur,22.5116,81.414,,
87,41,"Sha Ma Sha Bhawan Bhawan Devari Devari Ka Ka Atrikt Room",Anuppur,23.0939,81.3736,,
87,39,"Sha Pra Sha Sha Bhawan Sakola",Anuppur,23.0903,81.3731,,
87,30,"Sha Pra Sha Sha Bhawan Chilhari",Anuppur,23.0639,81.381,,
87,159,Laharpur,Anuppur,23.0842,81.5325,,
87,160,Laharpur,Anuppur,23.0749,81.5336,,
87,129,"Sha Pra Sha Sha Bhawan Jamuna Basti Kaksh 1 Jamuna",Anuppur,23.0406,81.5017,,
87,113,"Sha Ma Sha Bhawan Payari",Anuppur,23.1532,81.531,,
87,106,"Sha Pra Sha Sha Bhawan Pali",Anuppur,23.1181,81.7387,,
87,91,"Sha Pra Sha Sha Bhawan Jaldatola",Anuppur,23.0752,81.4311,,
87,82,"Sha Pra Sha Bhawan Chhulha",Anuppur,23.012,81.4222,,
87,54,"Sha Pra Sha Sha Bhawan Bholgadh",Anuppur,23.0947,81.4341,,
87,49,"Sha Pra Sha Sha Bhawan Kaksh 2 Bakeli",Anuppur,23.09,81.4034,,
86,60,"Govt Govt Primary School Building Dongariya kala",Anuppur,23.27746,81.91481,,
86,62,"Middle School Building Pathraudi",Anuppur,23.26531,82.030153,,
86,30,"Govt Govt Primary School Building East Peart Baharabandh",Anuppur,23.30431,82.10782,,
86,33,"Govt Govt Primary School Building Sajatola",Anuppur,23.33106907,82.10197,,
86,35,"Govt Govt Primary School Building Jalsar",Anuppur,23.31607,82.15293,,
86,37,"Govt Govt Primary School Building Kanaitola",Anuppur,23.26409,82.10105,,
86,38,"Govt Govt Primary School Building Thangawn",Anuppur,23.279246,82.11789,,
86,141,"Govt Govt Ps Building Semra",Anuppur,23.19802,82.06351,,
86,159,"Govt Govt Ps Building, Bagdumra",Anuppur,23.139977,81.99074,,
86,160,"Govt Govt Ps Building, Chhidamidi",Anuppur,23.0753,82.0345,,
86,162,"Govt Govt Ps Building, Chukan",Anuppur,23.0321,82.0314,,
86,3,"Govt Primary school building text Jarratola",Anuppur,23.27786,81.76561,,
88,117,"Sha Sha Pra Sha Sha Bhawan Tharpathar",Anuppur,22.5324,81.3529,,
88,122,"Sha Sha Pra Sha Sha Bhawan Lamasarai",Anuppur,22.5553,81.3815,,
88,30,"Sha Sha Pra Sha Sha Bhawan Gediama",Anuppur,23.234,81.241,,
88,32,"Sha Sha Ju Ju Ha Ha Sha Sha Bhawan Ka Purvi Bhag Amdari",Anuppur,23.218,81.2832,,
88,33,"Sha Sha Pra Sha Sha Bhawan Shyamduwari",Anuppur,23.153,81.2735,,
88,35,"Govt Govt Praimary School building Karanpathar",Anuppur,23.319,81.29,,
88,37,"Sha Sha Pra Sha Sha Bhawan Jarhi",Anuppur,23.25514,81.38843,,
88,174,"Sha Pra Sha Sha Bhawan Khajurwar",Anuppur,23.02369,81.73874,,
88,199,"Sha Pra Sha Sha Bhawan Godhan",Anuppur,22.5545,81.4733,,
88,224,"Sha Pra Sha Sha Bhawan Tali",Anuppur,22.4032,81.4528,,
88,222,"Navin Panchayat Bhawan Lapti",Anuppur,22.4032,81.4528,,
88,216,"Sha Pra Sha Sha Bhawan Kapariya",Anuppur,22.4032,81.4528,,
87,37,"Sha Kanya Sha Pra Sha Sha Bhawan Mediyaras",Anuppur,23.0845,81.3907,,
87,84,"Sha Pra Sha Bhawan Senduri",Anuppur,23.0406,81.4404,,
87,71,"Sha Pra Sha Sha Bhawan Dulahara",Anuppur,23.0712,81.4125,,
87,118,"""sha Balika Sha Pra Sha Bhawan Bhawan Pashchimi Bhaga Pasan""",Anuppur,23.1333,81.5219,,
87,108,"Sha Pra Sha Sha Bhawan Kolami",Anuppur,23.13,81.4708,,
87,101,"Sha Pra Sha Sha Bhawan Bhawan Kaksh 1 Devari",Anuppur,23.054,81.404,,
87,89,"Sha Ma Sha Bhawan Pasla",Anuppur,23.0638,81.4446,,
87,25,"Middle School Building Didwapani",Anuppur,23.11809,81.73869,,
87,27,"M Shala Bhawan Baribandh",Anuppur,23.0958,81.6592,,
87,42,"Shikha Garnti primary School Kudratola",Anuppur,23.4222,81.2301,,
87,77,"Sha Pra Sha Sha Bhawan Kekarpani",Anuppur,23.25514,81.38843,,
87,79,"Sha Pra Sha Sha Bhawan Koda",Anuppur,23.00307,81.413,,
86,5,"Govt Govt Primary school building Chhatai",Anuppur,23.36998,82.03952,,
86,8,"Govt Govt Govt Govt H S S S North Part Kothi",Anuppur,23.26406,82.10102,,
86,9,"Govt Govt Praimary School Building Gulidand",Anuppur,23.34826,82.03744,,
86,11,"Govt Govt Primary School Building Pachakhura",Anuppur,23.36071,82.05724,,
86,13,"Communal building Chaka",Anuppur,23.20291,81.58709,"Urban area",9
86,31,"Govt Govt Primary School Building Benibahra",Anuppur,23.317595,82.07232,,
86,59,"Govt Govt Primary School Building Bhagta",Anuppur,23.27746,81.91481,,
86,23,"Govt Govt Middle School Building Urtan",Anuppur,23.1918,81.59123,"Urban area",9
86,21,"Govt Govt Primary School Building chapani",Anuppur,23.192812,81.58721,"Urban area",9
86,20,"Govt Govt Primary School Building Ledra",Anuppur,23.1748,81.5643,"Urban area",9
86,18,"Govt Govt Primary School Building East Part Saddi",Anuppur,23.28746,81.8876,,
86,14,"Govt Govt Primary School Building Reusa",Anuppur,23.2052,81.58057,"Urban area",9
88,204,"Sha Pra Sha Sha Bhawan Munda",Anuppur,22.4929,81.45,,
88,194,"Sha Pra Sha Sha Bhawan Behanadabar",Anuppur,22.5555,81.4915,,
88,180,"Sha Pra Sha Sha Bhawan Padariya",Anuppur,22.90724,81.7689,,
88,166,"Sha Pra Sha Sha Bhawan Paraswar",Anuppur,22.4715,81.3541,,
88,157,"Sha Pra Sha Sha Bhawan Mahora",Anuppur,22.493,81.3052,,
88,155,"Sha Pra Sha Sha Bhawan Garhidadar",Anuppur,22.4917,81.2937,,
88,136,"Sha Sha Pra Sha Sha Bhawan Baghamar",Anuppur,22.5428,81.4027,,
88,134,"Govt Govt Praimary School building Bagharra",Anuppur,22.545,81.3927,,
88,161,"Sha Pra Sha Sha Bhawan Sanchara",Anuppur,22.4601,81.31,,
88,214,"P S Building Bhainadongri",Anuppur,22.4032,81.4528,,
88,3,"Sha Sha Pra Sha Bhawan Bijora Khurd",Anuppur,23.163,81.101,,
88,5,"Sha Sha Pra Sha Bhawan Padmaniya",Anuppur,23.1133,81.12,,
87,81,"Sha Pra Sha Sha Bhawan Room No 1 Pipariya",Anuppur,23.0212,81.4318,,
87,1,"Sha Pra Sha Sha Bhawan Bakahi",Anuppur,23.1233,81.3631,,
87,95,"Sha U Ma V V Bhawan Kamra N0 1 Bamhni",Anuppur,23.0927,81.4555,,
87,97,"Sha High School Bhawan Kaksh No No 1 Chhilpa",Anuppur,23.0927,81.4555,,
87,102,"Sha Pra Sha Sha Bhawan Bhawan Kaksh 1 Amalai",Anuppur,23.054,81.404,,
87,111,"Sha Pra Sha Sha Bhawan Bhawan Kaksh 1 Daikhal",Anuppur,23.1016,81.5149,,
87,114,"Sha Pra Sha Sha Bhawan Badara",Anuppur,23.113,81.5552,,
87,116,"Sha Pra Sha Sha Bhawan Badara Kalari Kaksh 1 Badara",Anuppur,23.1345,81.5225,,
87,120,"""bal Shi Ni U Ma V Kotama Kalari Ka Uttari Bhaga Pasan""",Anuppur,23.0932,81.5735,,
87,123,"Sha Ma Sha Sha Bhawan Bhawan Kotma Kalari Ka Kaksh 2 Pasan",Anuppur,23.19272082,81.87973939,,
87,130,"Sha Ma Sha Sha Bhawan Bhawan Jamuna Basti Kaksh 2 Jamuna",Anuppur,23.0406,81.5017,,
87,133,"Sha Ma Sha Sha Sha Jamuna Kalari Room No No 3",Anuppur,23.1895,81.9308,,
86,12,"Govt Govt Primary School Building Khamaroudh",Anuppur,23.27747,81.91482,,
86,71,"Govt Govt Primary School Building Building Bargawan",Anuppur,23.2293065,81.897493,,
86,6,"Govt Govt Primary school building Pipariya",Anuppur,23.811704,82.072256,,
86,4,"Govt Govt Middle School School Khodri",Anuppur,23.27745,81.91479,,
86,41,"Govt Govt Primary School Building Middle Part Mouhari Mains",Anuppur,23.26814087,82.12344772,,
86,36,"Govt Govt Primary School Building Belgawn",Anuppur,23.31929,82.17295,,
86,34,"Govt Govt Primary School Building Bhuila",Anuppur,23.3174,82.12559,,
86,25,"Govt Govt Primary School Building Building Silpur",Anuppur,23.19812,82.06974,,
86,149,"Govt Govt Ps Building, Sohibelha",Anuppur,23.13976,81.99073,,
86,124,"Panchayat Bhawan New Building 1, 1, Vanagavan",Anuppur,23.18502031,82.11961076,,
86,110,"Govt Govt Ps Building, Reunda (piparha)",Anuppur,23.21841404,82.13405684,,
86,104,"Govt Govt Ps Building, Baskhali",Anuppur,23.1344,82.039,,
88,7,"Sha Sha Pra Sha Bhawan Bhaghad",Anuppur,23.1153,81.15,,
88,8,"Sha Sha Pra Sha Bhawan Sarpha",Anuppur,23.0836,81.3552,,
88,10,"Sha Sha Pra Sha Bhawan Dhuradhar",Anuppur,23.846,81.1269,,
88,12,"Sha Sha Pra Sha Bhawan Mitthumahua",Anuppur,23.0733,81.1844,,
88,167,"Sha Pra Sha Sha Bhawan Nausa",Anuppur,22.74931,81.73656,,
88,71,"Sha Sha Pra Sha Sha Bhawan Kandikapa",Anuppur,22.546,81.154,,
88,66,"Sha Sha Ju Ju Hs Hs School Bhawan Itaur",Anuppur,23.25512,81.38841,,
88,31,"Sha Sha Pra Sha Sha Bhawan Dhavai",Anuppur,23.25513,81.38842,,
88,55,"Sha Sha Pra Sha Sha Bhawan Karpa",Anuppur,22.574,81.1551,,
88,23,"Sha Sha Pra Sha Sha Bhawan Payari",Anuppur,23.126,81.17,,
88,21,"Sha Sha Pra Sha Sha Bhawan Chatua",Anuppur,23.2512,81.3894,,
88,20,"Sha Sha Pra Sha Sha Bhawan Terera",Anuppur,23.25511,81.3884,,
87,57,"Sha Pra Sha Sha Bhawan Samatpur Room 2",Anuppur,23.1197,81.6996,,
87,60,"Sha Girl High School Naya Bhawan Ka Earth Part Room No No 2 Samatpur",Anuppur,23.1197,81.6996,,
87,62,"Sha Sha K H S S School Naya Bhawan Ka South Part Room No No 4 Samatpur",Anuppur,23.1181,81.7387,,
87,68,"Sha Ha Se Shcool Bhawan Ka Narth Room 26 Anuppur",Anuppur,23.1975,81.6996,,
87,66,"Sha Ha Se Shcool Bhawan Ka Purvi Room Ka 3 Anuppur",Anuppur,23.1181,81.7387,,
87,93,"Sha Pra Sha Sha Bhawan Dhanpuri",Anuppur,23.13,81.4708,,
87,104,"Sha Pra Sha Sha Bhawan Dhumma",Anuppur,23.1236,81.5409,,
87,70,"Sha Pra Sha Sha Bhawan Boy Anuppur",Anuppur,23.0637,81.4225,,
87,72,"Sha Pra Sha Sha Bhawan Taradand",Anuppur,23.0637,81.4225,,
87,73,"Sha Pra Sha Sha Bhawan Agariyanar",Anuppur,23.0637,81.4225,,
87,75,"Panchayat Bhawan Lakhanpru",Anuppur,23.0637,81.4225,,
87,125,"Esaisiel High School Kaksha 2 Pasan",Anuppur,23.1041,81.484,,
87,94,"Sha Pra Sha Sha Bhawan Dhangawan",Anuppur,23.0927,81.4555,,
87,2,"Sha Ma Sha Bhawan Bargavan",Anuppur,23.18659,81.606,,
88,18,"Sha Sha Pra Sha Bhawan Shitalpani",Anuppur,23.348,81.2152,,
88,13,"Panchayat Bhawan Kodar",Anuppur,23.0729,81.179,,
88,11,"Sha Sha Pra Sha Bhawan Thunguni",Anuppur,23.1001,81.171,,
88,6,"Sha Sha Pra Sha Bhawan Gijari",Anuppur,23.1123,81.1,,
88,4,"Sha Sha Ma Sha Bhawan Kharsol",Anuppur,23.135,81.1252,,
88,213,"Sha Pra Sha Sha Bhawan Singhaura",Anuppur,22.4537,81.4236,,
88,52,"Sha Sha Pra Sha Sha Bhawan Uphrikala",Anuppur,22.5622,81.2,,
88,84,"Sha Sha Ju Ju Ha Ha Sha Sha Bhawan Leelatola",Anuppur,22.5735,81.3135,,
88,75,"Sha Sha Ha Sec Sha Sha Bhawan Benibari",Anuppur,22.5351,81.2251,,
88,48,"Sha Sha Pu Pu Ma Sha Sha Bhawan Ledhra",Anuppur,22.5845,81.2449,,
88,43,"Sha Sha Pra Sha Sha Bhawan Piiraha",Anuppur,22.925,81.4738,,
88,186,"Sha Sha Pra Sha Sha Bhawan Kachh 1 Bahpur",Anuppur,22.5756,81.5524,,
86,91,"Govt Govt Ps Ps Building South Part Goinda",Anuppur,23.1039,81.5843,,
86,90,"Govt Govt Buniyadi Pa Pa Building Building Kotma Goinda",Anuppur,23.1039,81.5843,,
86,78,"Gram Panchayat Bhawan Pakariha",Anuppur,23.1136,81.55546,,
86,50,"Govt Govt primary School Building Padripani",Anuppur,23.2257587,82.132344,,
86,43,"Workers House Bujuri Mouhari Mouhari Mines",Anuppur,23.225145,82.117281,,
86,32,"Govt Govt Primary School Building Kyontar",Anuppur,23.31649,82.110864,,
86,81,"Govt Govt P S S Building Kalyanpur",Anuppur,23.12812,81.5845,,
86,65,"Govt Govt Primary School Building Building Romm No No 1 Reula",Anuppur,23.15153,81.57476,,
86,128,"Govt Govt Ps Building Room No 2 Shantinagar Vanagavan",Anuppur,23.18477086,82.11641908,,
86,113,"Govt Govt Ps Building,dola",Anuppur,23.22326711,82.14381863,,
86,106,"Govt Govt Ps Building, Katkona",Anuppur,23.29571969,82.05859917,,
86,100,"Govt Govt Ps Building Manmari",Anuppur,23.1312,81.58,,
88,77,"Panchayat Bhawan Lalpur",Anuppur,23.25514,81.38843,,
88,61,"Sha Sha Pra Sha Sha Bhawan Saraitola",Anuppur,22.6594,81.2936,,
88,46,"Sha Sha Pra Sha Sha Bhawan Chandiniya",Anuppur,22.5942,81.273,,
88,29,"Govt Govt Praimary School building Majhauli",Anuppur,23.122,81.2235,,
88,128,"Sha Sha Ps Ps Sha Sha Bhawan Ka D D Bhag Basniha",Anuppur,23.0101,81.4332,,
88,124,"Sha Sha Pra Sha Sha Bhawan Thamardar",Anuppur,22.579,81.3823,,
88,119,"Sha Sha Pra Sha Sha Bhawan Ghatha",Anuppur,22.545,81.369,,
88,197,"Sha Pra Sha Sha Bhawan Manaura",Anuppur,22.5336,81.4937,,
88,196,"Sha Sha Ju Ju High School Bhawan Gorasi",Anuppur,22.5423,81.5104,,
88,106,"Panchayat Bhawan Girarikhurd",Anuppur,22.558,81.2849,,
88,98,"Sha Sha Pra Sha Sha Bhawan D Bhag Harrai",Anuppur,23.1181,81.7387,,
88,92,"Sha Sha Pra Sha Sha Bhawan Bhaluchua",Anuppur,23.25508,81.38837,,
86,88,"2 New Building Building Basti Kotama",Anuppur,23.128,81.58461,,
86,44,"Govt Girl Middle Schoo lroom No No 1 Bijuri",Anuppur,23.252621,82.114767,,
86,47,"Govt Girl H S school room no 2 Bijuri",Anuppur,23.251452,82.117281,,
86,51,"Ramkhrisan Mission School room room No No 1 Kapidhara Colony Padar",Anuppur,23.257587,82.132344,,
86,53,"Ramkrishan Mission School Room No No 3 Kapildhara Colony Padar",Anuppur,23.25758799,82.13234468,,
86,73,"Govt Primay School Room No No 1 Budhanpur",Anuppur,23.22224566,81.92849,,
86,79,"Govt Govt M M School School Building Building Madhya Bhag Kotama",Anuppur,23.112,81.563,,
86,83,"Govt Govt Girl H S School Centre Part Kotma",Anuppur,23.12812,81.5845,,
86,87,"Govt Govt Ps Basti Kotma",Anuppur,23.1221,81.5846,,
86,115,"Govt Govt Ps Building Ramnager West Part",Anuppur,23.21848827,82.133991,,
86,138,"Sha Sha A J A K K Hss Malga Room No 1",Anuppur,23.14327904,82.0764059,,
86,1,"Govt Primary school building Suidod",Anuppur,23.27643,81.91452,,
88,82,"Govt Govt Praimary School building Piparkhuta",Anuppur,22.569,81.2845,,
88,68,"Govt Govt Praimary School building Baranjh",Anuppur,22.646,81.3622,,
88,72,"Sha Sha Pra Sha Sha Bhawan Beejapuri",Anuppur,22.4241,81.2043,,
88,74,"Pra Patshala Bhawan Paladigwar",Anuppur,22.5226,81.2253,,
88,175,"Sha Pra Sha Sha Bhawan Bandhnibhanwar",Anuppur,22.558,81.4348,,
88,1,"Sha Sha Pra Sha Bhawan Baditummi",Anuppur,23.1848,81.105,,
88,70,"Sha Sha Pra Sha Sha Bhawan Farhada",Anuppur,23.143,81.1442,,
88,105,"Govt Govt Praimary School building Jarhi",Anuppur,22.535,81.242,,
88,112,"Panchayat Bhawan Pauni",Anuppur,23.25512,81.38841,,
88,120,"Govt Govt Praimary School building Devri",Anuppur,23.0237,81.73875,,
88,191,"Sha Pra Sha Sha Bhawan Barbaspur",Anuppur,22.5533,81.5038,,
88,202,"Sha Sha Ju Ju High School Bhawan Kaksh 1 Lapta",Anuppur,22.5241,81.4517,,
88,60,"Sha Sha Pra Sha Sha Bhawan Antariya",Anuppur,22.5518,81.863,,
88,62,"Sha Sha Ju Ju Hs Hs School Bhawan Tulra",Anuppur,22.5527,81.17,,
88,65,"Sha Sha Pra Sha Sha Bhawan Harra",Anuppur,23.25515,81.38844,,
88,205,"Sha Pra Sha Sha Bhawan Umaria",Anuppur,22.5045,81.4418,,
88,208,"Sha Higher Secondary School Bhawan Purvi Bhag Venkatnagar",Anuppur,22.4744,81.4437,,
88,210,"Sha Pra Sha Sha Bhawan Khairitola",Anuppur,22.4841,81.4618,,
88,212,"Sha Pu Ma Ma Badatola",Anuppur,22.4609,81.4639,,
88,215,"Sha Pra Sha Sha Bhawan Khodari",Anuppur,22.4032,81.4528,,
88,219,"Sha Pra Sha Sha Bhawan Padripani",Anuppur,22.4648,81.4407,,
88,220,"Sha Pra Sha Sha Bhawan Kachh 1 Amgawan",Anuppur,22.4609,81.4639,,
88,221,"Sha Balak Pra Sha Sha Bhawan Madhakhar",Anuppur,22.4537,81.4236,,
88,87,"Sha Sha Ju Ju Ha Ha Sha Sha Bhawan Beldongri",Anuppur,22.5843,81.3419,,
86,72,"Govt Govt Primary School Building Pipariya",Anuppur,23.2376734,81.93521,,
86,75,"Govt Govt P S S Building Room No No 1 Sakola",Anuppur,23.124,81.5721,,
86,77,"Govt Govt P S S Building Pakariha",Anuppur,23.13,81.57,,
86,64,"Govt Middle Middle School Building Room No No 1 Lamatola",Anuppur,23.27745,81.9148,,
86,66,"Govt Govt Primary School Building Building Pakariha",Anuppur,23.16901,81.56201,"Urban area",9
86,67,"Girls H S S S Bijuri South Part Beliyabadi",Anuppur,23.27746,81.91481,,
86,69,"Govt High School New Building Devgawan",Anuppur,23.1233,81.5732,,
86,120,"Govt Govt Gs Building Room No No 4 East Part, Vanagavan",Anuppur,23.19529719,82.13400086,,
86,94,"Govt Govt Ps Building Building Village Goinda",Anuppur,23.1149,81.5916,,
86,2,"Rajiv Gandhi Primary school building building Bndhavatola",Anuppur,23.26877,81.765,,
88,2,"Sha Sha Pra Sha Bhawan Chhirapani",Anuppur,23.1622,81.1,,
88,217,"Sha Pra Sha Sha Bhawan Lahsuna",Anuppur,22.4032,81.4528,,
33,10,Dugansara,"Ashok Nagar",24.505,77.36556,,
33,96,Bakhtar,"Ashok Nagar",24.54052,77.57311,,
33,91,Palaktori,"Ashok Nagar",24.58588,77.53232,,
33,77,Theka,"Ashok Nagar",24.55324,77.51005,,
33,61,"Khiriya Devat","Ashok Nagar",24.47493,77.49244,,
33,37,Mahidapur,"Ashok Nagar",24.43116,77.39204,,
33,87,Sirni,"Ashok Nagar",24.56371,77.49266,,
33,53,"Chandan Behta","Ashok Nagar",24.44409,77.42221,,
33,74,Silapati,"Ashok Nagar",24.54322,77.4226,,
33,76,Chhapara,"Ashok Nagar",24.55324,77.51005,,
33,78,Gahoura,"Ashok Nagar",24.52505,77.50124,,
33,29,Manakachouk,"Ashok Nagar",24.49317,77.44305,,
33,32,Tighara,"Ashok Nagar",24.48143,77.42487,,
34,13,Bhatoli,"Ashok Nagar",24.38198,77.55563,,
34,15,Bheekli,"Ashok Nagar",24.365208,77.58266,,
34,17,Mohri,"Ashok Nagar",24.38584,77.57521,,
34,21,Thoobon,"Ashok Nagar",24.41005,78.00273,,
34,24,Piprod,"Ashok Nagar",24.7093,78.035686,,
34,26,"Gora Sehrai","Ashok Nagar",24.691386,78.057973,,
34,29,"Ram Nagar","Ashok Nagar",24.410901,78.0749,,
34,106,Madaukhedi,"Ashok Nagar",24.26511,78.14315,,
34,109,Jhagar,"Ashok Nagar",24.25066,78.10473,,
34,111,Sehpura,"Ashok Nagar",24.26043,78.07108,,
34,113,"Bharat Pura","Ashok Nagar",24.26549,78.07401,,
34,114,Gunheru,"Ashok Nagar",24.27031,78.04314,,
34,116,Mahuakhadi,"Ashok Nagar",24.24405,78.07011,,
34,118,Bhopal,"Ashok Nagar",24.24289,78.08397,,
32,13,Myapur,"Ashok Nagar",24.6880543,77.5804739,,
32,15,Chiroli,"Ashok Nagar",24.6880827,77.580193,,
32,17,Bagulya,"Ashok Nagar",24.6043,77.5635,,
32,21,Pahada,"Ashok Nagar",24.6484727,77.5479013,,
32,23,Charoda,"Ashok Nagar",24.6570221,77.5100107,,
32,25,Pharadai,"Ashok Nagar",24.6208093,77.6227351,,
32,27,Shadhoura,"Ashok Nagar",24.6145883,77.59148117,,
32,103,Ashokanagar,"Ashok Nagar",24.567978,77.729093,"Urban area",8
32,107,Ashokanagar,"Ashok Nagar",24.56888,77.729539,"Urban area",8
32,109,Ashokanagar,"Ashok Nagar",24.568472,77.728628,"Urban area",8
32,112,Ashokanagar,"Ashok Nagar",24.34287,77.43587,,
32,114,Ashokanagar,"Ashok Nagar",24.571974,77.734958,"Urban area",8
32,117,Ashokanagar,"Ashok Nagar",24.568923,77.729393,"Urban area",8
33,34,Banoura,"Ashok Nagar",24.45497,77.42181,,
33,36,Mahidapur,"Ashok Nagar",24.42059,77.3852,,
33,39,Umari,"Ashok Nagar",24.40524,77.40554,,
33,31,Ramgarh,"Ashok Nagar",24.50227,77.46364,,
33,5,Pourukhedi,"Ashok Nagar",24.53331,77.37014,,
33,12,Depalakhedi,"Ashok Nagar",24.52442,77.39277,,
33,17,"Aamkheda Urph Naisaray","Ashok Nagar",24.48348,77.35323,,
33,15,Pachavavadi,"Ashok Nagar",24.4854,77.37154,,
33,19,"Rusalla Khurd","Ashok Nagar",24.49051,77.34359,,
33,30,Rayashri,"Ashok Nagar",24.4916,77.43233,,
33,97,Baghnari,"Ashok Nagar",24.55331,77.55108,,
33,92,Kadvaya,"Ashok Nagar",24.57464,77.54576,,
33,79,Gahoura,"Ashok Nagar",24.5201,77.52219,,
34,121,Huraeri,"Ashok Nagar",24.23142,78.0811,,
34,123,Badoli,"Ashok Nagar",24.2206,78.05141,,
34,127,Mungavali,"Ashok Nagar",24.205409,78.0633,,
34,126,Sardarpur,"Ashok Nagar",24.244604,78.054403,,
34,129,Mungavali,"Ashok Nagar",24.241806,78.060609,,
34,131,Mugavali,"Ashok Nagar",24.2356,78.054909,,
34,132,Mungavali,"Ashok Nagar",24.235602,78.054707,,
34,211,Bilheru,"Ashok Nagar",24.195001,78.044406,,
34,212,Bilheru,"Ashok Nagar",24.185805,78.035605,,
34,215,Narakheda,"Ashok Nagar",24.2102,78.041906,,
34,218,Sumer,"Ashok Nagar",24.201201,77.575609,,
34,222,"Jasan Khedi","Ashok Nagar",24.202408,77.5742,,
34,225,Khiarkhedi,"Ashok Nagar",24.328216,77.938319,,
34,226,"Jaroli Dhubayai","Ashok Nagar",24.351837,77.946813,,
32,118,Ashokanagar,"Ashok Nagar",24.34342,77.43553,,
32,119,Ashokanagar,"Ashok Nagar",24.34264,77.43563,,
32,122,Ashokanagar,"Ashok Nagar",24.34326,77.43555,,
32,124,Ashokanagar,"Ashok Nagar",24.34544,77.43384,,
32,126,Ashokanagar,"Ashok Nagar",24.34467,77.43468,,
32,135,Kolua,"Ashok Nagar",24.57835,77.771926,,
32,137,Khiriyamahu,"Ashok Nagar",24.34239,77.4742,,
32,183,Kakaruaray,"Ashok Nagar",24.537441,77.610036,,
32,221,Shahavajpur,"Ashok Nagar",24.46796,77.701132,,
32,222,Jugya,"Ashok Nagar",24.28469,77.4113,,
32,224,Khajuriyakala,"Ashok Nagar",24.447527,77.75471,,
32,231,Bhetu,"Ashok Nagar",24.429739,77.69724,,
32,234,"Kudai Tumen","Ashok Nagar",24.410532,77.748954,,
32,236,Mahualamapur,"Ashok Nagar",24.383246,77.731418,,
33,75,Chhapara,"Ashok Nagar",24.46126,77.48394,,
33,69,Janghar,"Ashok Nagar",24.5109,77.4939,,
33,55,Piparesara,"Ashok Nagar",24.45294,77.45288,,
33,38,Sandoh,"Ashok Nagar",24.42391,77.39581,,
33,27,Ajleshvar,"Ashok Nagar",24.50384,77.44402,,
33,13,"Amrod Saddu","Ashok Nagar",24.83812,77.73617,,
33,16,Khasakheda,"Ashok Nagar",24.50024,77.39486,,
33,18,"Amakheda Urph Naisaray","Ashok Nagar",24.4834,77.35338,,
33,21,Sihor,"Ashok Nagar",24.48266,77.3643,,
33,71,Parsol,"Ashok Nagar",24.5315,77.4634,,
33,81,"Ganesh Kheda","Ashok Nagar",24.53564,77.51489,,
33,62,Jolan,"Ashok Nagar",24.47493,77.4924,,
33,47,Chhailai,"Ashok Nagar",24.40084,77.42339,,
34,231,Onder,"Ashok Nagar",24.300821,77.927258,,
34,233,Gora,"Ashok Nagar",24.304786,77.966272,,
34,234,Vavarod,"Ashok Nagar",24.291163,77.989682,,
34,235,Sirasoura,"Ashok Nagar",24.284357,77.96599,,
34,236,Malaukhedi,"Ashok Nagar",24.284672,77.956874,,
34,237,Ikodiya,"Ashok Nagar",24.308946,77.910881,,
34,239,Atareji,"Ashok Nagar",24.272903,77.930066,,
34,240,Ghatabamuriya,"Ashok Nagar",24.25576,77.950352,,
34,241,Laptoura,"Ashok Nagar",24.257737,77.983379,,
34,242,Bhyana,"Ashok Nagar",24.252435,78.002304,,
34,245,"Pipariya (malharagadha)","Ashok Nagar",24.171004,78.0248,,
34,246,"Mudara Malharagadh","Ashok Nagar",24.171005,78.024807,,
34,192,Jasaiya,"Ashok Nagar",24.33088645,77.780958,,
34,156,Ratavas,"Ashok Nagar",24.5202152,77.87587758,,
32,240,Rajapur,"Ashok Nagar",24.375443,77.689898,,
32,241,Rajpur,"Ashok Nagar",24.37657,77.68992,,
32,242,Rajapur,"Ashok Nagar",24.376468,77.689975,,
32,247,Chhipon,"Ashok Nagar",24.331815,77.637313,,
32,248,Chhipon,"Ashok Nagar",24.332105,77.637214,,
32,249,"Ratikheda Bamora","Ashok Nagar",24.318853,77.659332,,
32,250,Bamora,"Ashok Nagar",24.327048,77.710383,,
32,253,Bansakhedi,"Ashok Nagar",24.317453,77.743992,,
32,198,"Gata Sonera","Ashok Nagar",24.2803,77.34132,,
32,158,"Amahi Pachhar","Ashok Nagar",24.527132,77.696112,,
32,149,Khadichara,"Ashok Nagar",24.32152,77.48584,,
32,155,Dogarapachhar,"Ashok Nagar",24.529375,77.663258,,
32,138,"Barakheda Hemraj","Ashok Nagar",24.580271,77.807974,,
32,125,Ashokanagar,"Ashok Nagar",24.34467,77.43468,,
33,50,Kurayala,"Ashok Nagar",24.4123,77.43579,,
33,52,Ruhana,"Ashok Nagar",24.42482,77.42081,,
33,54,"Parasari Dhurra","Ashok Nagar",24.42071,77.43585,,
33,64,Bamnavar,"Ashok Nagar",24.44391,77.46246,,
33,68,Janghar,"Ashok Nagar",24.5001,77.48156,,
33,49,Derakha,"Ashok Nagar",24.48268,77.45415,,
33,14,"Rusalla Bujurg","Ashok Nagar",24.51301,77.40128,,
33,26,Kukretha,"Ashok Nagar",24.60394,77.89701,,
33,57,Garenthi,"Ashok Nagar",24.71374,77.77688,,
33,28,Ghatavada,"Ashok Nagar",24.83814,77.73612,,
33,22,"Amrod Singrana","Ashok Nagar",24.7728,77.6238,,
33,23,"Amrod Singrana","Ashok Nagar",24.46383,77.37411,,
33,24,Singakhedi,"Ashok Nagar",24.4531,77.39083,,
34,150,Karr,"Ashok Nagar",24.274,77.581603,,
34,154,Keshopur,"Ashok Nagar",24.486894,77.928716,,
34,135,Mungavali,"Ashok Nagar",24.241703,78.055808,,
34,128,Mungavali,"Ashok Nagar",24.244608,78.054406,,
34,122,Nitara,"Ashok Nagar",24.22035,78.07209,,
34,112,"Mudra Mungawali","Ashok Nagar",24.27402,78.06211,,
34,110,Barvah,"Ashok Nagar",24.25518,78.0928,,
34,107,"Mardan Khedi","Ashok Nagar",24.26508,78.14315,,
34,83,Khoriwari,"Ashok Nagar",24.30187,77.57574,,
34,72,Bammanakhiriya,"Ashok Nagar",24.3238,78.0538,,
34,152,Chirwansa,"Ashok Nagar",24.456169,77.936467,,
34,137,Mungavali,"Ashok Nagar",24.244603,78.055005,,
34,247,Malharagadh,"Ashok Nagar",24.164006,78.040309,,
34,243,"Barakheda Bhogi","Ashok Nagar",24.271668,77.961015,,
32,121,Ashokanagar,"Ashok Nagar",24.34325,77.43555,,
32,111,Ashokanagar,"Ashok Nagar",24.34291,77.43596,,
32,63,Ravasar,"Ashok Nagar",24.37251,77.44569,,
32,65,Garroli,"Ashok Nagar",24.64367371,77.8553827,,
32,151,Shankarpur,"Ashok Nagar",24.565718,77.723166,"Urban area",8
32,2,Chhapar,"Ashok Nagar",24.8030376,77.5496275,,
32,128,Ashoknagar,"Ashok Nagar",24.34332,77.44096,,
32,247,Repri,"Ashok Nagar",24.348474,77.68852,,
