ac_id_09,booth_id_14,booth_name_14,district_name_14,latitude,longitude,modis,modis_rank,booth_id_21
4,16,"Govt Govt Primary School, Madant, Nadora (west Wing)","North Goa",15.674031,73.869483,,,
4,17,"Shree Shantadurga High School, Talapwada, Pirna (north Wing)","North Goa",15.673784,73.884846,,,
4,18,"Shree Shantadurga High School, Talapwada, Pirna (south Wing)","North Goa",15.673784,73.884846,,,
4,19,"Govt Govt Primary School, Tanodiwada, Pirna","North Goa",15.662792,73.88562,,,
4,20,"Govt Govt Primary School, Kelwado, Pirna","North Goa",15.660003,73.880457,,,
4,21,"Govt Govt Primary School, Madel, Tivim (east Wing)","North Goa",15.619157,73.838032,,,
4,22,"Govt Govt Primary School, Auchitwado, Tivim (west Wing 2)","North Goa",15.62252,73.854576,,,
4,23,"Govt Govt Primary School, Madel, Tivim (west Wing)","North Goa",15.619157,73.838032,,,
4,24,"Govt Primary School, Auchitvado, Tivim (west Wing 1)","North Goa",15.62252,73.854576,,,
4,25,"Office of Jr Jr Engineer, Electricity Dept , Tivim","North Goa",15.63165673,73.85689951,,,
4,26,"Office of Asst Asst Engineer Sd Ii,wd Viii,goa Tilari Irrigation Development Corporation (gtidc),tivim","North Goa",15.63165673,73.85689951,,,
5,14,"Gundu Sitaram Amonkar Vidhyamandir, Feira Alto Mapusa (auditorium Room)","North Goa",15.593908,73.812663,,,
5,15,"Gundu Sitaram Amonkar Vidhyamandir, Feira Alto, Mapusa (laboratory Room)","North Goa",15.593908,73.812663,,,
5,16,"St St Mary's Primary School Ground floor, Feira Alto, Mapusa Goa ( North Wing)","North Goa",15.591923,73.81647,,,
5,17,"St St Mary's Primary School Ground Floor, Feira Alto Mapusa Goa (south Wing)","North Goa",15.591923,73.81647,,,
5,18,"Janata High School , Gaunsawado, Mapusa (west Wing I)","North Goa",15.591174,73.815304,,,
5,19,"Janata High School, Gaunsawado, Mapusa (west Wing Ii)","North Goa",15.591174,73.815304,,,
5,20,"Janata High School ,gaunsawado Mapusa (east Wing)","North Goa",15.591174,73.815304,,,
5,21,"Govt Govt Primary School Ansabhat Mapusa (north Wing)","North Goa",15.591159,73.80953,,,
5,22,"Adei North Zone Ansabhat ,mapusa (conference Room)","North Goa",15.591159,73.80953,,,
5,23,"Duty Officer's Room, O/o Fire Services, Ansabhat, Mapusa","North Goa",15.590722,73.80896,,,
5,24,"Electricity Dept Dept Building,ansabhat, Mapusa (north Wing)","North Goa",15.59336,73.809472,,,
5,25,"Electricity Dept Dept Building,ansabhat, Mapusa (south Wing)","North Goa",15.59336,73.809472,,,
6,21,"Govt Govt Primary School Huddo Chapora (east Wing)","North Goa",15.602983,73.74389,,,
6,22,"Govt Govt Primary School Chapora (west Wing)","North Goa",15.603812,73.737294,,,
6,23,"Govt Govt Primary School Chapora (east Wing)","North Goa",15.603812,73.737294,,,
6,24,"Sacred Heart High School Anjuna ( North Wing)","North Goa",15.581641,73.748463,,,
6,25,"Sacred Heart High School Anjuna (south Wing)","North Goa",15.581641,73.748463,,,
6,26,"Govt Govt Priamary School Bandirwado Anjuna","North Goa",15.604179,73.7521,,,
6,27,"Village Panchayat Office Gavadi Anjuna","North Goa",15.597752,73.748645,,,
6,28,"Govt Govt Primary School Mazalwado Anjuna (west Wing)","North Goa",15.620681,73.783255,,,
6,29,"Govt Govt Priamary School Mazalwado Anjuna (east Wing)","North Goa",15.620681,73.783255,,,
6,30,"Govt Govt Priamary School Anjuna Chiwar","North Goa",15.615597,73.785225,,,
6,31,"Govt Govt Primary School Munong Assagao(north Wing)","North Goa",15.600377,73.767464,,,
6,32,"Govt Govt Primary School Munong Assagao(south Wing)","North Goa",15.600377,73.767464,,,
14,33,"Govt Govt Primary School (s W ),tito, Mandur","North Goa",15.451868,73.922573,,,
14,34,"Govt Govt Primary School (n W ), Tito, Mandur","North Goa",15.451868,73.922573,,,
14,35,"Govt Govt Village Library (n W ),dongrim Thorlebhat","North Goa",15.448817,73.926588,,,
14,36,"Govt Govt Village Library (s W ),dongrim Thorlebhat","North Goa",15.448817,73.926588,,,
14,37,"V P P Office Azossim Mandur","North Goa",15.450707,73.925494,,,
15,35,"Govt Govt Primary School , Carambolim(east Wing)","North Goa",15.483987,73.932656,,,
15,36,"Govt Govt Primary School , Carambolim(west Wing)","North Goa",15.483987,73.932656,,,
15,37,"Village Panchayat Office, Carambolim (old Bldg)","North Goa",15.485929,73.933273,,,
15,38,"Village Panchayat Office, Dona Maria, Carambolim(new Building)","North Goa",15.485717,73.932463,,,
15,39,"Communidade Bldg, Carambolim","North Goa",15.479792,73.923727,,,
16,35,"Govt Primary School Vithalapur (east Wing) Karapur","North Goa",15.567286,74.003283,,,
16,36,"Office of the Executive Engineer, Wd V,wrd (adm Section) Karapur Tisk","North Goa",15.570828,74.000006,,,
6,33,"Govt Govt Primary School Badem Assagao(north Wing)","North Goa",15.607163,73.750325,,,
6,34,"Govt Govt Primary School Badem Assagao (south Wing)","North Goa",15.607163,73.750325,,,
6,35,"Dr Dr August Souza High School Assagao (north Wing)","North Goa",15.605171,73.754154,,,
6,36,"Dr Dr August Souza High School Assagao (south Wing)","North Goa",15.605171,73.754154,,,
6,37,"Don Bosco Youth Welfare Center Verla","North Goa",15.576019,73.794715,,,
7,1,"Government Primary School, Namaoshi Guirim (north Wing)","North Goa",15.573332,73.804719,,,
7,2,"Govt Primary School, Namoshi Gurim (south Wing)","North Goa",15.573332,73.804719,,,
7,3,"Govt Primary School, Namoshi Guirim (east Wing)","North Goa",15.573332,73.804719,,,
7,26,"Dayanand Bandodkar High School,reis Magos (east Wing)","North Goa",15.507015,73.810299,,,
7,27,"Dayanand Bandodkar High School,reis Magos (west Wing)","North Goa",15.507015,73.810299,,,
7,28,"Govt Primary School, Sonarbhat Reis Magos (east Wing)","North Goa",15.507115,73.809435,,,
7,29,"Govt Primary School, Sonarbhat Reis Magos (west Wing)","North Goa",15.507115,73.809435,,,
7,30,"Old Police Bldg Bldg Betim Police Out Post, Reis Magos","North Goa",15.516874,73.823133,"Urban area",9,
7,31,"River Navigation Office, Penha De France (north Wing)","North Goa",15.506454,73.808291,,,
7,32,"River Navigation Office, Penha De France (south Wing)","North Goa",15.511788,73.82108,,,
7,33,"River Navigation Office, Penha De France (west Wing)","North Goa",15.514435,73.82387,,,
7,34,"Village Panchayat Office, Nerul","North Goa",15.510227,73.782964,,,
8,1,"Village Panchayat (ground Floor) parra","North Goa",15.574923,73.789833,,,
8,3,"Govt Govt Primary School, Parra (south Wing) Wing) Lobo Vaddo, Parra","North Goa",15.574923,73.789833,,,
8,4,"Health Center, Parra, B Arradi","North Goa",15.582628,73.77709,,,
8,5,"Communadidade Bldg, Parra, Arradi","North Goa",15.579832,73.778772,,,
8,6,"Govt Govt Primary School Arpora, (east Wing) Viegas Vaddo, Arpora","North Goa",15.561666,73.768472,,,
8,7,"Govt Govt Primary School Arpora, (west Wing) Viegas Vaddo, Arpora","North Goa",15.561666,73.768472,,,
8,8,"St St Joseph High school, Viegas Vaddo, Arpora","North Goa",15.537766,73.76306,,,
16,37,"Govt Govt Primary School Vithalapur (west Wing) Karapur","North Goa",15.563741,74.000255,,,
16,38,"Govt Govt Primary School Deulwada (north Wing)","North Goa",15.607057,74.006454,,,
12,12,"Peace Heaven Home & School for the Mentally Challenged Children,caranzalem Goa","North Goa",15.468534,73.807611,,,
12,13,"Clube Sao Miguel De Taleigao","North Goa",15.46762177,73.8192933,,,
12,14,"Office of the Communidade De Taleigao,tiswadi Goa","North Goa",15.46771956,73.81928537,,,
12,15,"Our Lady Of Rosary High School, (std 1v A Class Room ), Dona Paula Goa","North Goa",15.461244,73.807428,,,
12,16,"Govt Govt Primary & High School,(konkani Class) ,dona Paula Goa","North Goa",15.45533,73.802965,,,
12,17,"Govt Govt Primary & High School, ( Std I Class),dona Paula Goa","North Goa",15.45533,73.802965,,,
12,18,"Our Lady Of Rosary High School, ( Std Iii A Class Room ),dona Paula Goa","North Goa",15.461244,73.807428,,,
12,19,"Our Lady Of Rosary High School, (staff Room),dona Paula Goa","North Goa",15.461244,73.807428,,,
12,20,"Govt Govt Primary School,odxel,tiswadi Goa","North Goa",15.454381,73.829683,,,
4,27,"Govt Primary School, Auchitwado, Tivim (east Wing )","North Goa",15.61661,73.852345,,,
4,28,"Govt Govt Primary School, Cansa, Tivim (north Wing)","North Goa",15.63373818,73.86643787,,,
4,29,"Govt Primary School, Cansa, Tivim, (south Wing)","North Goa",15.63373818,73.86643787,,,
4,30,"Govt Govt Primary School, Sirsaim, (west Wing), Sirsaim","North Goa",15.62555282,73.87427307,,,
4,31,"Govt Govt Primary School, Sirsaim (east Wing 2)","North Goa",15.62552454,73.87421912,,,
4,32,"Govt Govt Primary School, Sirsaim (east Wing 1)","North Goa",15.62552454,73.87421912,,,
4,33,"St St Clara High School, Assonora (east Wing)","North Goa",15.6198239,73.8901729,,,
14,17,"Office of Provedoria Asst Asst Public, Dando","North Goa",15.440929,73.886881,,,
14,18,"G P S (n W ), Forgottem","North Goa",15.444389,73.882868,,,
14,19,"G P S (s W ), Forgottem","North Goa",15.444389,73.882868,,,
14,20,"Popular English High School","North Goa",15.445366,73.880824,,,
14,21,"Peoples House (casa De Pova) Forgottem","North Goa",15.44429,73.882637,,,
14,22,"G P S S Agacaim Tryceum Classes, G P S S Agacaim Tryceum Classes, Mercurim Baixo De Igreja","North Goa",15.426681,73.899112,,,
14,23,"G P S S Mercurim","North Goa",15.426099,73.904208,,,
14,24,"G P S (n W ), Mercurim","North Goa",15.425861,73.897732,,,
14,25,"St St Lawrence High School, Agacaim","North Goa",15.425861,73.897732,,,
14,26,"V P P Office, Agacaim","North Goa",15.425861,73.897732,,,
14,27,"G P S S Sulabhat","North Goa",15.439445,73.900345,,,
14,28,"G P S (s W ), Mercurim","North Goa",15.425861,73.897732,,,
14,29,"Fr Fr Agnel Central School, Malwara","North Goa",15.440588,73.891644,,,
14,30,"Village Panchayat, Neura","North Goa",15.442925,73.917345,,,
15,1,"Govt Govt Primary School, Vanxim Sao Mathias","North Goa",15.528034,73.912381,,,
15,2,"Govt Govt Primary School, Malar, Sao Mathias","North Goa",15.528034,73.915996,,,
15,3,"Govt Govt Primary School, Naroa, Sao Mathias","North Goa",15.532342,73.924153,,,
15,4,"Village Panchayat Office, Sao Mathias","North Goa",15.529664,73.912622,,,
15,5,"Commudade Office Bldg, Navelim","North Goa",15.52424,73.89853,,,
15,6,"Village Panchayat Goltim, Navelim","North Goa",15.526664,73.902306,,,
15,7,"St St Aloysius High School, Santarbhat","North Goa",15.529099,73.904208,,,
15,8,"Govt Govt Primary School, Asilo Bldg, Piedade","North Goa",15.527551,73.904004,,,
15,9,"Govt Govt Primary School, Akhada","North Goa",15.535283,73.930054,,,
23,25,"Government Primary School, Undir, Bandora","North Goa",15.40357,73.955208,,,
23,26,"Government Primary School, Gauthan, Queula, (n W ),","North Goa",15.393911,73.985501,,,
23,27,"Government Primary School, Gauthan,queula, (s W ),","North Goa",15.393818,73.985533,,,
23,28,"Government Primary School, Galshirem Galshirem Queula (n W ),","North Goa",15.399039,73.987247,,,
23,29,"Government Primary School, Galshirem Galshirem Queula (s W )","North Goa",15.398995,73.987266,,,
23,30,"Government Primary School, Kapileshwari,queula","North Goa",15.38975,73.994274,,,
13,10,"Govt Govt Primary /middle School Kirlawada,(east Wing 1)","North Goa",15.4975057,73.86836,,,
13,11,"Govt Govt Primary/middle School, Kirlawada,(east Wing 2)","North Goa",15.4975057,73.86836,,,
13,12,"Sarva Shiksha Abhiyan Premises,chimbel","North Goa",15.4975057,73.86836,,,
13,13,"Home for Women & Child Welfare, Health & Child Development Centre, Indira Nagar, Chimbel","North Goa",15.4975057,73.86836,,,
13,14,"Chimbel Pre Primary, Jhulaghar, Chimbel","North Goa",15.4975057,73.86836,,,
13,15,"Govt Govt Primary School, Merces, (west Wing)","North Goa",15.475685,73.843218,,,
13,16,"Govt Govt Primary School , Merces, (east Wing)","North Goa",15.475106,73.844334,,,
13,17,"Our Lady Of Merces High School (north Wing 1)","North Goa",15.47894959,73.84650396,,,
13,18,"Our Lady of Merces High School (north Wing 2)","North Goa",15.478001,73.842967,,,
13,19,"Our Lady of Merces High School (south Wing)","North Goa",15.477753,73.84399,,,
13,20,"Govt Govt Middle School Gauchembhat, Merces, (north Wing)","North Goa",15.47982,73.841144,,,
1,46,"Government Primary School Virnora(west Wing)","North Goa",15.690817,73.819605,,,
2,41,"Govt Govt Primary School, Harijanwada","North Goa",15.736662,73.886741,,,
2,42,"Govt Govt Primary & Middle School, Hassapur","North Goa",15.735258,73.89712,,,
2,43,"Govt Govt Primary & Middle School, Alorna","North Goa",15.719147,73.911675,,,
2,44,"Govt Govt Primary & Middle School, Talarna (east South)","North Goa",15.704771,73.889138,,,
2,45,"Govt Govt Primary & Middle School, Talarna (east North)","North Goa",15.705597,73.889052,,,
2,46,"Govt Govt Primary School, Hankhane","North Goa",15.736167,73.830485,,,
3,34,"Govt Govt Primary School,wadacha Wada (old School Building) (east Wing)","North Goa",15.5953,73.946995,,,
3,35,"Shri Shantadurga Higher Secondary School, Bordem (east Wing)","North Goa",15.598604,73.943629,,,
3,36,"Shri Shantadurga Higher Secondary School, Bordem (west Wing)","North Goa",15.598604,73.943629,,,
3,37,"Industrial Training Institute, Valshi, Bordem, Bicholim","North Goa",15.602446,73.935169,,,
3,38,"Govt Govt Primary School, Gaonkarwada Mulgao","North Goa",15.609811,73.921334,,,
15,30,"Madkaikar Navchaityan High School, Corlim","North Goa",15.498814,73.938448,,,
15,32,"Govt Govt Primary School, Mangado, Corlim","North Goa",15.497048,73.935174,,,
15,33,"Govt Govt Primary School, Dhulapi","North Goa",15.494169,73.946051,,,
16,1,"Govt Govt High School Sirigao ( Deulwada)","North Goa",15.604531,73.899144,,,
16,2,"Govt Govt Primary School ( Deulwada )","North Goa",15.604492,73.899329,,,
16,3,"Poira High School, Poira Goa","North Goa",15.595254,73.899144,,,
16,4,"Govt Govt Primary School Sinquerim","North Goa",15.585971,73.894971,,,
16,5,"Govt Govt Primary School ( Karbhat ) Haldanwadi","North Goa",15.584465,73.905203,,,
16,6,"Govt Govt Primary School Gaonkarwada","North Goa",15.584328,73.911402,,,
16,7,"Govt Govt Primary School Kumbharwada","North Goa",15.576536,73.920197,,,
16,8,"Govt Govt Primary School Kelbaiwada ( North wing )","North Goa",15.558586,73.951683,,,
16,9,"Govt Govt Primary School Kelbaiwada (south wing)","North Goa",15.586498,73.921997,,,
16,10,"Govt Govt Primary School Deus Bhatwadi","North Goa",15.576902,73.933868,,,
11,6,"Bal Bharti Vidhya Mandir, Ribander(south Wing)","North Goa",15.496942,73.831337,"Urban area",7,
11,7,"Govt Govt Primary School, Room No No 1, Massano de Amorim (north Wing)","North Goa",15.498638,73.830307,"Urban area",7,
11,8,"Govt Govt Primary School, Room No No 2, Massano de Amorim (north Wing)","North Goa",15.499299,73.829449,"Urban area",7,
11,9,"Govt Govt Primary School, Room No No 3, Massano de Amorim (north Wing)","North Goa",15.497604,73.829964,"Urban area",7,
11,10,"Sd Iv, Div Vii (nh), P W D , Patto, Panaji","North Goa",15.497232,73.829921,"Urban area",7,
11,11,"Saraswati Vidyalaya, Mustifund Saunsthan, Mala","North Goa",15.4914263,73.8330222,"Urban area",7,
11,12,"Mary Immaculate High School, Front Side, Panaji (north Wing)","North Goa",15.496567,73.831713,"Urban area",7,
11,13,"Govt Govt Primary School, Portais","North Goa",15.493303,73.830736,"Urban area",7,
11,14,"Institute of Public Assistance,provedoria Head Office(accounts Section),mala,panaji","North Goa",15.4914263,73.8330222,"Urban area",7,
11,15,"Directorate of Food & Drugs,adm Section,altinho,panaji","North Goa",15.487678,73.830736,"Urban area",7,
11,16,"Goa State Commisioner for Backward classes, Iphb (old), Altinho","North Goa",15.489043,73.829706,"Urban area",7,
16,11,"Govt Govt Primary School Haturli","North Goa",15.558852,73.915353,,,
16,12,"Vijayanand Higher Secondary School of Arts and Commerce, Tikhajan","North Goa",15.558183,73.910471,,,
16,13,"Govt Govt Primary School Vainguinim","North Goa",15.567583,73.909307,,,
16,14,"Govt Govt Primary School Bhavkai","North Goa",15.575724,73.90803,,,
16,15,"Govt Govt Primary School Deugi","North Goa",15.536776,73.884607,,,
16,16,"Govt Govt Primary School Kerem","North Goa",15.527122,73.880801,,,
16,17,"Chodan Madel Village Panchayat","North Goa",15.551134,73.889845,,,
16,18,"Electricity Department Office of the Jr Jr Engineer, Electricity, Chorao llhas","North Goa",15.553674,73.888297,,,
16,19,"Integrated Child Dev Dev Proj Ser Sch (anganwadi),chorao","North Goa",15.543185,73.87711,,,
16,20,"Govt Govt Primary School Padavwada","North Goa",15.55719,73.885478,,,
21,41,"Government Primary School, (west Wing) Yeshwantnagar, Ponda Goa","North Goa",15.391237,74.002093,,,
21,42,"Ponda Municipal Council (office), Ponda Goa","North Goa",15.396169,74.002528,,,
21,43,"Ponda Municipal Council (hall), Ponda Goa","North Goa",15.396179,74.002522,,,
22,42,"Government Primary School(east Wing) Vizar Panchawadi","North Goa",15.283691,74.080261,,,
22,43,"Government Primary School(west Wing) Vizar Panchawadi","North Goa",15.28367,74.080296,,,
22,44,"Government Primary School, Mapa Panchawadi","North Goa",15.279709,74.092652,,,
22,45,"Government Primary School, Digas Panchawadi","North Goa",15.274839,74.097684,,,
23,34,"Government Primary School, Bedxem, Talaulim (n W )","North Goa",15.382026,73.980429,,,
23,35,"Government Primary School, Bedxem, Talaulim (s W )","North Goa",15.382026,73.980421,,,
23,36,"Government Primary School, Kasawada,talaulim","North Goa",15.374521,73.975271,,,
23,37,"Government Primary School, Und Agapur, Durbhat","North Goa",15.394035,73.958569,,,
23,38,"Government Primary School, (no (no 1), Agapur, (w W )","North Goa",15.378395,73.963182,,,
23,39,"Government Primary School,(no School,(no 1), Agapur (e W)","North Goa",15.378353,73.963257,,,
1,1,"Government Primary School, Tiracol","North Goa",15.722894,73.68987,,,
1,2,"Government Primary School Talwada Querim(east Wing)","North Goa",15.716914,73.69226,,,
1,3,"Government Primary School Talwada Querim(west Wing)","North Goa",15.716914,73.69226,,,
1,4,"Government Primary School Madhalawada Querim(east Wing)","North Goa",15.71671,73.703732,,,
1,5,"Government Primary School School (madhalawada Querim(west Wing)","North Goa",15.71671,73.703732,,,
1,6,"Government Primary School Madhalawada Paliem (east Wing)","North Goa",15.715786,73.697613,,,
1,7,"Government Primary School Madhalawada Paliem (west Wing)","North Goa",15.715786,73.697613,,,
1,8,"Government Primary School Bhandarwada Paliem","North Goa",15.715458,73.698914,,,
1,9,"Our Lady Of Mount Carmel High School Madhalawada Arambol(north Wing)","North Goa",15.688129,73.71063,,,
1,10,"Our Lady Of Mount Carmel High School Madhalawada Arambol(south Wing)","North Goa",15.688129,73.71063,,,
1,11,"Pancha Croshi Sangeet Vidhyalaya,arambol","North Goa",15.690373,73.713661,,,
1,12,"Gramin Vachanalaya Arambol","North Goa",15.688387,73.712948,,,
1,13,"Government Primary School Parsekarwada Parsekarwada Arambol","North Goa",15.683328,73.718808,,,
1,14,"Government Primary School Deulwada Arambol","North Goa",15.68322,73.711819,,,
1,15,"Handloom Training Centre Girkarwada Arambol","North Goa",15.685156,73.70869,,,
1,16,"Government Primary School Sawantwada Mandrem","North Goa",15.686179,73.724043,,,
1,35,"Government Primary School Agarwada (east Wing)","North Goa",15.64494,73.761021,,,
1,36,"Government Primary School Agarwada (west Wing)","North Goa",15.64494,73.761021,,,
1,37,"Government Primary School Chonsai Parcem","North Goa",15.68246,73.788643,,,
1,38,"Government Primary School B D L Madhalawada, Parcem","North Goa",15.681056,73.787656,,,
1,39,"Goverment Primary School Chawdewada Parcem (east Wing)","North Goa",15.669445,73.78036,,,
1,40,"Government Primary School Chawdewada Parcem (west Wing)","North Goa",15.669941,73.780103,,,
1,41,"Government Primary School Vaidongar Parcem","North Goa",15.658453,73.777785,,,
1,42,"Government Primary School, Harmalkarwada Tuem","North Goa",15.672807,73.793787,,,
1,43,"Government Primary Middle School Gaonkarwada, Tuem","North Goa",15.666346,73.795632,,,
1,44,"Government Primary School Bandarwada Tuem","North Goa",15.658107,73.806388,,,
1,45,"Government Primary School Virnora(east Wing)","North Goa",15.690817,73.819605,,,
2,1,"Govt Govt Primary School, Manshiwada","North Goa",15.73113762,73.74663978,,,
2,2,"Govt Govt Primary School , Konadi","North Goa",15.729686,73.769036,,,
2,3,"Govt Govt Primary School, Deusu","North Goa",15.730084,73.75783,,,
2,4,"Govt Govt Primary School(east Wing), Deulwada","North Goa",15.729454,73.749526,,,
2,5,"Govt Govt Primary School(west Wing), Deulwada","North Goa",15.729495,73.749374,,,
2,6,"Govt Govt Primary School, Bhatwadi","North Goa",15.705886,73.757265,,,
2,7,"Govt Govt Primary School, Bhaidwada","North Goa",15.69907,73.756707,,,
2,27,"Government Primary & Middle School Varkhand, (west South)","North Goa",15.725592,73.837044,,,
2,28,"Government Primary & Middle School, Nagzar","North Goa",15.708117,73.853488,,,
2,29,"Govt Govt Primary School, Malpem ( South West )","North Goa",15.70568,73.761413,,,
2,30,"Govt Govt Primary School, Malpem (south East)","North Goa",15.703036,73.7621,,,
13,21,"Govt Govt Middle School, Gauchem Bhat, (north Wing 1)","North Goa",15.474692,73.843561,,,
13,22,"Provedoria Building (bsnl Exchange) Devornem, Merces Goa","North Goa",15.477753,73.84399,,,
13,23,"Office of the Superintendent Cum Probation Officer,(admn Room) (west Wing) Apna Ghar,merces Goa","North Goa",15.477127,73.865176,,,
13,24,"New Building Hall,(west Wing),apna Ghar,merces","North Goa",15.477127,73.865176,,,
13,25,"Govt Govt Primary School, Corte De Real, St St Cruz,(west Wing)","North Goa",15.4786771,73.8479188,,,
13,26,"Govt Govt Primary School, Corte De Real, St St Cruz, (east Wing)","North Goa",15.4786771,73.8479188,,,
13,27,"Anganwadi center under integrated Child development Service project,tiswadi, St St Cruz","North Goa",15.4786771,73.8479188,,,
11,27,"Goa College of Home Science, Campal","North Goa",15.4872904,73.8144343,"Urban area",7,
11,28,"P W D Work Division Iv, Tonca","North Goa",15.4797144,73.8179892,"Urban area",7,
11,29,"Directorate of Agriculture, Krishi Bhavan, Tonca","North Goa",15.481833,73.8177946,"Urban area",7,
11,30,"Dhempe college of Arts and Science, Ground Floor, Hall No 3, Miramar","North Goa",15.48011,73.813398,"Urban area",7,
2,31,"Govt Govt Primary School, Oxelbag","North Goa",15.68589,73.826273,,,
2,32,"Govt Govt Primary School, Arabo","North Goa",15.68089,73.823097,,,
2,33,"Govt Govt Primary School, Dhareshwar","North Goa",15.67618,73.831288,,,
2,34,"Govt Govt Primary School(south Wing), Deulwada","North Goa",15.729557,73.749369,,,
2,35,"Govt Govt Primary School Chinchulawada","North Goa",15.677172,73.837345,,,
2,36,"Government Primary & Middle School, Dadachiwadi","North Goa",15.675064,73.838762,,,
2,37,"Govt Govt Primary School, Gothanwada","North Goa",15.687171,73.88104,,,
2,38,"Government Primary School Madkaiwada Ozorim","North Goa",15.687708,73.874516,,,
2,39,"Govt Govt Primary And Middle School, Casarvarnem (east South)","North Goa",15.715512,73.880641,,,
3,1,"Govt Govt Primary & Middle School Advalpal Gaonkarwada (east Wing)","North Goa",15.638496,73.899447,,,
3,2,"Govt Govt Primary & Middle School Advalpal Gaonkarwada (west Wing)","North Goa",15.638496,73.899447,,,
3,3,"Govt Govt Primary School Near Mauli Temple (east Wing), Mencurem","North Goa",15.697714,73.897723,,,
17,39,"Govt Primary School ,navarwada Pale","North Goa",15.474669,74.069341,,,
17,40,"Govt Primary School ,ambeshiwada , Pale","North Goa",15.47044,74.0829,,,
17,41,"Govt Primary School ,talewada , Pale","North Goa",15.464098,74.057682,,,
17,42,"Govt Primary School, Ambegal, Pale","North Goa",15.474201,74.06046,,,
17,43,"Shri Navdurga High School,ambegal Pale","North Goa",15.473175,74.058247,,,
17,44,"Govt Primary School, Khajan, Surla","North Goa",15.457426,74.041127,,,
17,45,"Govt Primary School, Rumad, Surla","North Goa",15.450612,74.045212,,,
17,46,"Govt Primary School Bhamai Pale","North Goa",15.458147,74.045765,,,
18,47,"Government Primary School, Narayan Nagar (east Wing),","North Goa",15.550374,74.044582,,,
18,48,"Government Primary School, Narayan Nagar(west Wing),","North Goa",15.550371,74.044659,,,
18,49,"Government Primary School, Soliyem","North Goa",15.537254,74.044847,,,
18,50,"Government Primary School, Ovaliyem","North Goa",15.546392,74.085475,,,
21,14,"Operational,maintainance & Staff Training Center,divx(northwing),electricity Dept,haveli Curti Ponda","North Goa",15.411614,74.010791,,,
21,15,"Operational,maintainance & Staff Training Center,divx(west Wing), Electricity Dept, Haveli Curti Ponda","North Goa",15.411588,74.010859,,,
21,16,"Department Of Animal Husbandry and Vetenary Services, Key Village Scheme Curti Ponda Goa","North Goa",15.410735,74.014227,,,
21,17,"Government Primary School(north Wing), Nagzar Curti Ponda Goa","North Goa",15.4069,74.01199,,,
21,18,"Government Primary School(middle Wing), Nagzar Curti, Ponda Goa","North Goa",15.406911,74.012012,,,
21,19,"Government Primary School(south Wing), Nagzar Curti, Ponda Goa","North Goa",15.406916,74.011977,,,
21,20,"Government Primary School (north Wing), Mavel, Curti, Ponda Goa","North Goa",15.413967,74.025007,,,
21,21,"Government Primary School (south Wing), Mavel, Curti Ponda Goa","North Goa",15.410471,74.024227,,,
21,22,"St Mary High School, Silvanagar (north Wing) Ponda Goa","North Goa",15.402693,74.013743,,,
21,23,"St St Mary High School, Silvanagar(middle Wing) Ponda Goa","North Goa",15.402693,74.013743,,,
21,24,"St St Mary High School, Silvanagar(south Wing) Ponda Goa","North Goa",15.402693,74.013743,,,
3,4,"Govt Govt Primary School Near Mauli Temple (west Wing), Mencurem","North Goa",15.697714,73.897723,,,
3,5,"Govt Govt Primary School, Dhumacem","North Goa",15.689012,73.912896,,,
3,29,"Shree Shantadurga High School Bicholim (east Wing)","North Goa",15.598031,73.945148,,,
3,30,"Shree Shantadurga High School Bicholim (west Wing)","North Goa",15.59214,73.947705,,,
4,1,"Govt Govt Primary School, Khairat, Camurlim","North Goa",15.640242,73.80645,,,
4,2,"Govt Govt Primary School, Vagali, Camurlim","North Goa",15.637006,73.787771,,,
4,3,"Village Panchayt, Camurlim","North Goa",15.641624,73.806206,,,
4,4,"Office of Talathi, Camurlim","North Goa",15.641624,73.806206,,,
4,5,"Mahatma Jyotiba Phule High School, Mushir Wado, Colvale","North Goa",15.64124833,73.83157706,,,
4,6,"Govt Govt Primary School, Chicalim, Colvale, (west Wing)","North Goa",15.647983,73.829358,,,
4,7,"Govt Govt Primary School, Koniwado, Colvale","North Goa",15.64192637,73.83795588,,,
4,8,"Village Panchayat Building, Colvale","North Goa",15.6450335,73.83643908,,,
8,34,"Govt Govt Primary School Dando (north Wing) Candolim","North Goa",15.505715,73.770792,,,
10,37,"Govt Govt Primary School, Podwal(east Wing) Aldona","North Goa",15.596142,73.891865,,,
10,38,"Govt Govt Primary School, Podwal(west Wing) Aldona","North Goa",15.596142,73.891865,,,
10,39,"Govt Govt Primary School , Corjuem(east Wing)","North Goa",15.588159,73.880154,,,
10,40,"Govt Govt Primary School , Corjuem(west Wing)","North Goa",15.588159,73.880154,,,
10,41,"St Domnic Savio Sports Club, Calvim","North Goa",15.57074,73.886846,,,
12,36,"Office Of the Assistant Engineer I,wd Iii (phe),pwd (revenue Section),st Inez,panaji Goa","North Goa",15.469191,73.819707,,,
12,37,"Govt Govt Primary School ,(north Wing),vodlem Bhat,taleigao Goa","North Goa",15.472045,73.823734,,,
12,38,"Govt Govt Primary School ,(south Wing),vodlem Bhat,taleigao Goa","North Goa",15.47205,73.82374,,,
12,39,"Govt Govt Primary School (std Iv Class),kamrabhat, St Inez,tonca Inez,tonca Goa","North Goa",15.474361,73.810866,,,
12,40,"Govt Primary School (std (std Iii Class),kamrabhat, St Inez,tonca Goa","North Goa",15.46642,73.807004,,,
4,9,"Govt Govt Primary School ,tarwado, Colvale (north Wing)","North Goa",15.64490934,73.84060308,,,
4,10,"Govt Govt Primary School, Tarvado, Colvale (south Wing)","North Goa",15.64500863,73.8406168,,,
4,11,"Govt Govt Primary School, Mazilwado, Revora (west wing)","North Goa",15.65939131,73.84489029,,,
4,12,"Govt Govt High School, Nadora, Revora","North Goa",15.66631548,73.85583407,,,
4,13,"Govt Govt Primary School, Mazilwado, Revora (east Wing )","North Goa",15.65939131,73.84489029,,,
4,14,"Govt Govt Primary School, Karkechowal, Revora","North Goa",15.65263367,73.84707896,,,
4,15,"Govt Govt Primary School, Madant, Nadora (east Wing)","North Goa",15.674031,73.869483,,,
5,1,"Government Primary School Near Datta Mandir, Cunchelim Mapusa (north Wing)","North Goa",15.616941,73.813917,,,
5,2,"Government Primary School Near Datta Mandir, Cunchelim Mapusa (south Wing)","North Goa",15.616941,73.813917,,,
5,3,"Government Primary School Near Datta Mandir, Cunchelim Mapusa (east Wing)","North Goa",15.616941,73.813917,,,
5,4,"Government Primary School Xelpem Duler Mapusa (south West Wing)","North Goa",15.605492,73.813788,,,
21,25,"Government Primary School (west Wing), Varkhande, Ponda Goa","North Goa",15.402362,74.004118,,,
21,26,"Government Primary School (east Wing), Varkhande, Ponda Goa","North Goa",15.402362,74.004156,,,
21,27,"Government Primary School, Khadpabandh Ponda Goa","North Goa",15.397684,73.999414,,,
21,28,"Almeida High School (east Wing), Khadpabandh Ponda Goa","North Goa",15.401444,74.002318,,,
21,29,"Almeida High School (middle Wing) Khandabandh Ponda Goa","North Goa",15.401444,74.002318,,,
21,30,"Almeida High School (west Wing), Khandpabandh Ponda Goa","North Goa",15.401444,74.002318,,,
20,19,"Government Primary School (new Building) Savoi Verem Ponda Goa Madhalawada","North Goa",15.479991,74.017741,,,
20,20,"Government Village Library Building, Savoi Verem Ponda Goa Madhalawada","North Goa",15.434652,73.991176,,,
20,21,"Government Primary School,vagurme,verem Ponda Goa Gaonkarwada","North Goa",15.441105,73.999046,,,
20,22,"Government Primary School Karmale Querim Ponda Goa","North Goa",15.436224,73.989216,,,
20,23,"Government Primary School Arla Querim Ponda Goa","North Goa",15.441436,74.004883,,,
12,41,"O/o the Assistant Engineer Iii, Wd Iii (phe), Pwd, Tonca, Caranzalem Caranzalem Caranzalem Goa","North Goa",15.469811,73.809625,,,
14,31,"Gps Neura Neura O Pequen, Neura","North Goa",15.443161,73.911059,,,
14,32,"G P S S Igrejwado","North Goa",15.443776,73.915903,,,
16,39,"Govt Govt Primary School Deulwada (south Wing)","North Goa",15.607057,74.006454,,,
16,40,"Govt Govt Primary School (naikwada), Maulinguem (north Wing)","North Goa",15.61926,73.978047,,,
16,41,"Govt Govt Primary School (naikwada) , Maulinguem (south Wing)","North Goa",15.61926,73.978047,,,
16,42,"Govt Govt Primary School Ona","North Goa",15.614014,73.95612,,,
17,30,"Govt Primary School, Khodgini, Surla","North Goa",15.516983,74.024283,,,
17,31,"Govt Primary School, Bayem, Surla","North Goa",15.509933,74.042559,,,
17,32,"Govt Primary School, Ghadiwada, Surla","North Goa",15.48703,74.041816,,,
17,33,"Tagore Educational Institute,tishem,kothambi","North Goa",15.485037,74.034786,,,
17,34,"Govt Primary & Middle School,(north Wing) Velguem","North Goa",15.499648,74.054106,,,
17,35,"Govt Primary & Middle School,(south Wing)","North Goa",15.499648,74.054106,,,
17,36,"Bharti Bandodkar Primary School, Velguem","North Goa",15.501734,74.050823,,,
17,37,"Govt Primary School , Kothambi Pale","North Goa",15.558221,74.011749,,,
17,38,"Govt Primary School ,chinchwada Pale","North Goa",15.490966,74.059449,,,
19,42,"Govt Govt Primary School Dhaushire(north Wing),","North Goa",15.43177,74.077431,,,
19,43,"Govt Govt Primary School Dhaushire (south Wing),","North Goa",15.423217,74.0777471,,,
19,44,"Govt Govt High School, Dhaushire","North Goa",15.423206,74.077117,,,
19,45,"Govt Govt Primary School, Pal Udi (east Wing)","North Goa",15.526468,74.139647,,,
19,46,"Govt Govt Primary School, Pal Udi (west Wing)","North Goa",15.567482,74.167113,,,
20,42,"Government Primary School Galwada Priol Ponda Goa","North Goa",15.437181,74.004314,,,
20,43,"Government Primary School Gauthan Veling Ponda Goa","North Goa",15.432803,73.971918,,,
20,44,"Government Primary School Khazanwada Veling Ponda Goa","North Goa",15.424005,73.963485,,,
20,24,"Government Primary School Satode Querim Ponda Goa,","North Goa",15.457889,74.000382,,,
20,25,"Government Primary School,(north Wing) Amarkhane Querim","North Goa",15.466795,73.995066,,,
20,27,"Government Primary School(north Wing) Adcolna Ponda Goa, Fatewada","North Goa",15.489751,73.963831,,,
20,28,"Government Primary School(south Wing) Adcolna Ponda Goa Fatewada","North Goa",15.489723,73.963915,,,
20,29,"Government Primary School(north Wing) Boma Ponda Goa Gauthan","North Goa",15.474653,73.96363,,,
20,30,"Government Primary School (south Wing) Boma Ponda Goa Gauthan","North Goa",15.474645,73.963687,,,
20,31,"Government Primary School Muslimwada Boma Ponda Goa","North Goa",15.476799,73.96326,,,
20,32,"Government Primary School (north Wing) Magilwada Cuncoliem Ponda Goa","North Goa",15.506735,73.990747,,,
20,33,"Government Primary School (south Wing) Magilwada Cuncoliem Ponda Goa","North Goa",15.506689,73.990758,,,
20,34,"Government Primary School(east Wing) Mangueshi, Priol Ponda Goa","North Goa",15.447292,73.968761,,,
20,35,"Government Primary School (west Wing) Mangueshi, Priol Ponda Goa","North Goa",15.447196,73.968721,,,
21,33,"Government Primary School (west Wing) Durgabhat Ponda Goa","North Goa",15.400648,74.012905,,,
21,34,"Government High School, New Building Ground Floor (west Wing) Shantinagar Ponda Goa","North Goa",15.399456,74.006248,,,
21,35,"Government High School, New Building Ground Floor (east Wing) Shantinagar Ponda Goa","North Goa",15.399425,74.006226,,,
21,36,"Government Primary School, Staff Room, Shantinagar Ponda Goa","North Goa",15.399414,74.006183,,,
21,37,"Government Primary School, Ground Floor, Shantinagar Ponda Goa","North Goa",15.399458,74.006224,,,
21,38,"Office Of The Assistant Eng Eng Sub Div Iii , W D Xvi, (building), P W D, Sadar Ponda Goa","North Goa",15.397402,74.002758,,,
21,39,"Zonal Agricultural Office, Directorate of Agriculture, Technical Section Room, St Cruz, Ponda Goa","North Goa",15.396973,74.004126,,,
21,40,"Government Primary School (east Wing), Yeshwantnagar, Ponda Goa","North Goa",15.391266,74.002117,,,
23,40,"Government Primary School, Durbhat","North Goa",15.372762,73.974617,,,
5,34,"Saraswat Vidalay's Pre Primary Khorlim Mapusa (room A)","North Goa",15.594432,73.804814,,,
5,35,"Saraswat Vidalay's Pre Primary Khorlim Mapusa (staff Room)","North Goa",15.594432,73.804814,,,
5,5,"Government Primary School Xelpem Duler Mapusa (south East Wing)","North Goa",15.605492,73.813788,,,
5,6,"Government Primary School Xelpem, Duler Mapusa (north Wing)","North Goa",15.605492,73.813788,,,
5,7,"Government Primary School Xelpem Duler Mapusa (south East Wing)","North Goa",15.605492,73.813788,,,
5,8,"Zonal Agricultural Office, Duler Mapusa (east Wing)","North Goa",15.596708,73.815955,,,
5,9,"Zonal Agricultural Office, Duler Mapusa (west Wing)","North Goa",15.596708,73.815955,,,
5,10,"Government Primary School,karaswada Mapusa (north Wing)","North Goa",15.612415,73.822427,,,
5,11,"Government Primary School,karaswada Mapusa ( South Wing)","North Goa",15.612415,73.822427,,,
5,12,"St Antony High School Ground Floor, Duler Mapusa (lower K G)","North Goa",15.603678,73.816543,,,
5,13,"St Anthony High School Ground Floor, Duler Mapusa (upper K G )","North Goa",15.603678,73.816543,,,
6,3,"Govt Govt Primary School Bamanvado Oxel (west Wing)","North Goa",15.634537,73.775296,,,
6,4,"Govt Govt Primary School Chopdem Oxel (east Wing)","North Goa",15.634537,73.774666,,,
6,5,"Village Panchayat Office siolim","North Goa",15.621053,73.795424,,,
5,36,"Saraswat Vidalay's Pre Primary Khorlim Mapusa (room 2c)","North Goa",15.594432,73.804814,,,
5,37,"Purushottam Walawalkar H S S School of Arts, Science & Comm, Khorlim Mapusa (vocational Room)","North Goa",15.594295,73.804741,,,
5,38,"Govt Govt Primary School Khorlim, Mapusa (east Wing)","North Goa",15.598581,73.802244,,,
5,39,"Government Primary School, Khorlim Mapusa ( Middle Room)","North Goa",15.598581,73.802244,,,
5,40,"Government Primary School, Khorlim Mapusa ( West Wing)","North Goa",15.598581,73.802244,,,
5,41,"Conference Hall, Govt Office Complex, Ground Floor, Morod Mapusa ( East Wing)","North Goa",15.587772,73.813909,,,
5,42,"Conference Hall, Govt Office Complex,ground Floor Morod Mapusa (west Wing)","North Goa",15.587772,73.813909,,,
7,35,"Kisan Shikshan Saustha Pragati High School, Nerul (south Wing)","North Goa",15.510227,73.782964,,,
7,36,"Our Lady of Remedious High School, Tithavado, Nerul (east Wing)","North Goa",15.505864,73.785764,,,
7,37,"Our Lady of Remedious High School, Tithavado, Nerul (west Wing)","North Goa",15.505864,73.785764,,,
7,38,"Our Lady of Remedious High School, Tithavado, Nerul (north Wing)","North Goa",15.505864,73.785764,,,
6,6,"St St Francis Xavier's High School siolim","North Goa",15.621908,73.768829,,,
6,7,"Govt Govt Primary School New Bldg Bldg Dando, Siolim","North Goa",15.620306,73.776739,,,
6,8,"Govt Govt Primary School Bamanvado, Siolim (east Wing)","North Goa",15.62344,73.755493,,,
6,9,"Govt Govt Primary School Bamanvado, Siolim(west Wing)","North Goa",15.62344,73.755493,,,
6,10,"Kirti Vidhyalaya Siolim (north Wing)","North Goa",15.627653,73.762024,,,
6,11,"Kirti Vidhyalaya Siolim (south Wing)","North Goa",15.627653,73.762024,,,
6,12,"Kirti Vidhyalaya, Siolim (west Wing)","North Goa",15.627653,73.762024,,,
6,13,"Govt Govt Primary School Guddem siolim","North Goa",15.621893,73.748313,,,
6,14,"Holy Cross Convent High School Siolim (north Wing)","North Goa",15.621182,73.785518,,,
6,15,"Holy Cross Convent High School siolim (south Wing)","North Goa",15.621182,73.785518,,,
6,16,"Govt Govt Primary School Tropa sodiem siolim (north Wing)","North Goa",15.622872,73.796909,,,
6,17,"Govt Govt Primary School Tropa Sodiem Siolim (south Wing)","North Goa",15.622872,73.796909,,,
6,18,"Wood Craft Training Centre Siolim (west Wing)","North Goa",15.612875,73.776739,,,
6,19,"Wood Craft Training Centre Siolim (east Wing)","North Goa",15.612875,73.776739,,,
6,20,"Govt Govt Primary School Chapora Anjuna (west Wing)","North Goa",15.602983,73.74389,,,
7,4,"Government High School, Namoshi Guirim","North Goa",15.573332,73.804719,,,
7,5,"Government Primary School, Aradi Monte Guirim (north Wing)","North Goa",15.563201,73.802963,,,
7,6,"Govt Govt Primary School, Aradi Monte Guirim (south Wing)","North Goa",15.563201,73.802963,,,
7,7,"Village Panchayat Office, Guirim","North Goa",15.570567,73.804435,,,
7,8,"Govt Govt primary school old building Cottula Saligao(north Wing)","North Goa",15.54648,73.788738,,,
7,9,"Govt Govt Primary School Near New Building, Cottula Saligao(north Wing)","North Goa",15.54648,73.788738,,,
7,10,"Government Primary School Near New Building, Cottula Saligao(south Wing)","North Goa",15.54648,73.788738,,,
7,11,"Sub Health Centre, Saligao","North Goa",15.547092,73.789388,,,
7,12,"Communidade Building, Saligao","North Goa",15.54773,73.789246,,,
3,6,"Govt Govt Primary School Vailowado (north Wing), Salem","North Goa",15.692738,73.930561,,,
3,7,"Govt Govt Primary School Vailowado (south Wing), Salem","North Goa",15.692738,73.930561,,,
3,8,"Govt Govt High School, Salem","North Goa",15.692263,73.931194,,,
3,9,"Govt Govt Primary School, Kholpewadi, Salem,","North Goa",15.690806,73.941711,,,
3,10,"Govt Govt Primary School, Deulwada, Vadaval","North Goa",15.668353,73.931084,,,
3,11,"Govt Govt Primary School, Dodamarg","North Goa",15.652526,73.948239,,,
3,12,"Govt Govt Primary School, Kharpal","North Goa",15.652686,73.95576,,,
3,13,"Govt Govt Primary School, Kasarpal","North Goa",15.645245,73.939919,,,
3,14,"Govt Govt Primary & Middle School, Nanoda","North Goa",15.63839,73.92433,,,
3,15,"Govt Govt Primary School, Usap","North Goa",15.65196,73.924518,,,
3,16,"Govt Govt Primary & Middle School, Nanoda","North Goa",15.63839,73.92433,,,
3,17,"Govt Govt Primary School, Ladfem","North Goa",15.627477,73.953939,,,
7,13,"Lourdes Convent Hall, Saligao (east Wing)","North Goa",15.540355,73.791346,,,
7,14,"Lourdes Convent Hall, Saligao (west Wing)","North Goa",15.540355,73.791346,,,
7,15,"Comunidade Building, Chawdi Sangolda","North Goa",15.542947,73.810913,"Urban area",9,
7,16,"Village Panchayat Office, Sangolda (north Wing)","North Goa",15.545007,73.811494,"Urban area",9,
7,17,"Village Panchayat Office, Sangolda (south Wing)","North Goa",15.545007,73.811494,"Urban area",9,
7,18,"Govt Govt Primary School,sangolda","North Goa",15.541415,73.811317,"Urban area",9,
7,19,"Govt Govt Primary School, Savlem Pilerne","North Goa",15.527687,73.80936,"Urban area",9,
7,20,"Govt Govt Primary School, Moica Waddo (west Wing)","North Goa",15.532241,73.811532,"Urban area",9,
7,21,"Govt Govt Primary School, Moica Waddo (east Wing)","North Goa",15.532241,73.811532,"Urban area",9,
7,22,"Jnyan Vikas High School, Pilerne (north Wing)","North Goa",15.524447,73.824337,"Urban area",9,
7,23,"Jnyan Vikas High School, Pilerne (south Wing)","North Goa",15.524447,73.824337,"Urban area",9,
7,24,"Govt Govt Primary School, Mainem Pilerne","North Goa",15.532355,73.804751,"Urban area",9,
7,25,"Village Panchayat, Reis Magos","North Goa",15.507604,73.80976,"Urban area",9,
8,14,"Calangute Association Building (block 1) Tiwai vadda, Calangute","North Goa",15.546183,73.760444,,,
8,15,"Calangute Association Building (block 2) Tiwai vadda, Calangute","North Goa",15.546183,73.760444,,,
8,16,"Don Bosco High School, Block 1 Calangute","North Goa",15.541945,73.768126,,,
8,17,"Don Bosco High School, Block 2 Calangute","North Goa",15.541945,73.768126,,,
8,18,"Govt Govt Primary School, Naikawaddo (north Wing) Calangute","North Goa",15.543818,73.765661,,,
8,19,"Govt Govt Primary School Naikawaddo (south Wing) Calangute","North Goa",15.543818,73.765661,,,
8,20,"St St Joseph High School, (block 1) Tiwai vadda, Calangute","North Goa",15.537766,73.76306,,,
8,21,"Don Bosco High School, Block 3","North Goa",15.541945,73.768126,,,
8,22,"Calangute Association Building (block 3) Umta Vaddo","North Goa",15.546183,73.760444,,,
8,23,"St St Joseph High School (block 2) Tiwai vadda, Calangute","North Goa",15.537766,73.76306,,,
23,31,"Government Primary School, Khalchawada, Dhavli, (n W )","North Goa",15.382054,73.980429,,,
23,32,"Government Primary School, Khalchawada, Dhavli, (s W )","North Goa",15.382054,73.980429,,,
23,33,"Government Primary School, Bedxem, Talaulim (m W )","North Goa",15.382054,73.980426,,,
2,47,"Govt Govt Primary School, Ibrampur (north East)","North Goa",15.73532,73.828855,,,
2,48,"Govt Govt Primary School, Ibrampur (north West)","North Goa",15.735402,73.828511,,,
3,31,"O/o O/o Fiering Force, (guard Office), Lakherem, Bordem, Bicholim","North Goa",15.59214,73.945148,,,
3,32,"Govt Govt Primary School, New School Building (north Wing) Wadachawada, Bordem","North Goa",15.59531,73.947127,,,
3,33,"Sarva Shiksha Abhiyan Hall, Bordem","North Goa",15.595517,73.947344,,,
8,28,"Institute of Provedoria (block 2)","North Goa",15.520591,73.767801,,,
8,29,"St St Teresa High School (block 1) confraria Candolim","North Goa",15.518177,73.77669,,,
8,30,"Govt Govt Primary School Orda Candolim","North Goa",15.519376,73.781282,,,
8,31,"St St Teresa High School (block 2) confraria Candolim","North Goa",15.518177,73.77669,,,
8,24,"Govt Govt Primary School (central Wing), Naikawaddo","North Goa",15.543818,73.765661,,,
8,25,"Institute of Provedoria (block 1)","North Goa",15.520591,73.767801,,,
8,26,"Govt Govt Primary School Abe De Faria Pintos Vaddo, (south Wing)","North Goa",15.518585,73.767732,,,
8,27,"Govt Govt Primary School Abe De Faria Pintos Vaddo, (north Wing)","North Goa",15.518585,73.767732,,,
9,1,"Vaadem V P P Library,soccoro Library,soccoro Library,soccoro Porvorim","North Goa",15.571699,73.831256,,,
9,2,"Govt Primery School Carrem, Socorro Socorro Socorro Porvorim(east Wing)","North Goa",15.561493,73.826236,,,
9,3,"Govt Govt Primery School (west Wing) Carrem, Socorro Socorro Socorro Porvorim","North Goa",15.561493,73.826236,,,
9,4,"Govt Govt Primary School (north Wing) Carrem,socorro Porvorim","North Goa",15.55079,73.824615,,,
9,21,"District Institute of Education and training (north Wing 1), Penha de France,porvorim","North Goa",15.524736,73.828677,"Urban area",9,
9,22,"District Institute of Education and training (east Wing), Penha de France,porvorim","North Goa",15.524736,73.828677,"Urban area",9,
9,23,"District Institute of Education & Training (west Wing),penha de Franca Porvorim","North Goa",15.524736,73.828677,"Urban area",9,
9,24,"Vidhya Probhodini Higher Secondary Education alto Betim(west Wing),porvorim","North Goa",15.526948,73.831241,"Urban area",9,
9,25,"Vidhya Probhodini Higher Secondary Education alto Betim(east Wing),porvorim","North Goa",15.526948,73.831241,"Urban area",9,
9,26,"Chamber of Jr Eng Goa Hsg Hsg Brd Account Section, Alto Betim Porvorim","North Goa",15.514228,73.836654,,,
9,27,"Admn Section of Goa Hsg Brd (east Wing) Account Section, Alto Betim Porvorim","North Goa",15.514228,73.836654,,,
9,28,"Admin Section of Goa Hsg Hsg Brd (west Wing), Alto Betim Porvorim","North Goa",15.514228,73.836654,,,
9,29,"Dattaram Chopdekar Memorial High School","North Goa",15.51614,73.835828,,,
9,30,"Sanjay School (north wing office Premises)alto Betim","North Goa",15.516458,73.834999,,,
10,1,"Govt Govt Primary School Kamarkhajan(north Wing) Mapusa","North Goa",15.594435,73.837196,,,
10,2,"Govt Govt Primary School, Kamarkhazan (south Wing) Mapusa","North Goa",15.597411,73.833763,,,
10,3,"Sport Complex New Building(east wing) Peddem Mapusa","North Goa",15.605347,73.836681,,,
10,24,"St Elizabeth High School(north Wing), Pomburpa","North Goa",15.56126,73.867867,,,
10,25,"Vidhya Prabhoddhini School, Pomburpa(west Wing)","North Goa",15.56126,73.864828,,,
10,26,"St Elizabeth High School(south Wing), Pomburpa","North Goa",15.56126,73.867867,,,
10,27,"Govt Govt Primary School, Ecoxim(east Wing)","North Goa",15.572443,73.86927,,,
10,28,"Govt Govt Primary School, Ecoxim(west Wing)","North Goa",15.566821,73.862747,,,
10,29,"Auxillium School, Aldona(north Wing)","North Goa",15.578419,73.870276,,,
10,30,"Auxillium School,aldona (south Wing)","North Goa",15.578419,73.870276,,,
10,31,"V P P Office Aldona","North Goa",15.589128,73.874253,,,
10,32,"Govt Govt Primary School, Cotarbhat(east Wing) Aldona","North Goa",15.589583,73.874258,,,
10,33,"Govt Govt Primary School, Cotarbhat(west Wing) Aldona","North Goa",15.589583,73.874258,,,
10,34,"St Thomas Boys School Aldona","North Goa",15.591252,73.872381,,,
10,35,"Govt Govt Primary School, Quitla (ground Floor) (east Wing) Aldona","North Goa",15.602931,73.873301,,,
10,36,"Govt Govt Primary School, Quitla (ground Floor) (west Wing) Aldona","North Goa",15.602931,73.873301,,,
11,1,"Govt Govt Primary School, Sao Pedro, Ribandar","North Goa",15.495702,73.824837,"Urban area",7,
11,2,"Govt Govt Primary School , Fondvem (west wing)","North Goa",15.495702,73.829101,"Urban area",7,
11,3,"Govt Govt Primary School, Fondvem (east Wing)","North Goa",15.493717,73.830475,"Urban area",7,
11,4,"Government Primary School (south Wing) Fondvem, Ribander (health)","North Goa",15.48956,73.82033,"Urban area",7,
11,5,"Bal Bharti Vidhya Mandir, Ribander(north Wing)","North Goa",15.497935,73.829492,"Urban area",7,
11,23,"Municipal Library, Behind Dr Dr Bhatkule, St Inez","North Goa",15.4941953,73.8214711,"Urban area",7,
11,24,"Goa College of Pharmacy, Room No 2, Panaji","North Goa",15.4941953,73.8214711,"Urban area",7,
11,25,"Dr Dr T B B Cunha Higher Secondary School, Campal","North Goa",15.4872904,73.8144343,"Urban area",7,
11,26,"Dr Dr T B B Cunha Higher Secondary School, Campal","North Goa",15.4872904,73.8144343,"Urban area",7,
12,1,"Govt Govt Primary School, (pre Primary Class),chincholem,tiswadi Goa","North Goa",15.473947,73.819872,,,
12,2,"Govt Govt Primary School, (english Class),chincholem,tiswadi Goa","North Goa",15.473947,73.819872,,,
12,3,"Happy Kids Nursery and Primary School (north Wing),st Wing),st Inez, Panaji Goa","North Goa",15.473327,73.819921,,,
12,4,"Happy Kids Nursery and Primary School (south Wing),st Wing),st Inez, Panaji Goa","North Goa",15.471218,73.81224,,,
12,5,"Office of the Asstistant Engineer I, Wd Iii(phe),pwd ,staff Room,st Room,st Inez,panaji Goa","North Goa",15.473327,73.811896,,,
12,6,"O/o Assistant Engineer Engineer Ii, Wd Iii (phe), Pwd, Tonca, Caranzalem Caranzalem Caranzalem Goa","North Goa",15.471611,73.80896,,,
12,7,"Office of the Assistant Engineer I, Wd Iii(phe), Pwd(j Pwd(j E E Room) St St Inez,panaji Goa","North Goa",15.471879,73.820308,,,
12,8,"Telephone Exchange Building,miramar Goa","North Goa",15.472748,73.814171,,,
12,9,"Auxillium High School, (nursery Room),caranzalem Goa","North Goa",15.47182,73.81345,,,
12,10,"Auxillium High School, ( Parlour Room),caranzalem Goa","North Goa",15.47182,73.81345,,,
12,11,"Auxillium High School (garage),caranzalem Goa","North Goa",15.47182,73.81345,,,
12,30,"Little Lambs Pre Pre Primary & Primary & Royale Secondary School ( Kg Ii Room),sailem,taleigao Goa","North Goa",15.46593669,73.82636023,,,
12,31,"Little Lambs Pre Primary & Primary & Royale Secondary School (hall Room ),sailem ,taleigao Goa","North Goa",15.46586034,73.82641064,,,
12,32,"Ideal High School, ( North Wing),taleigao Goa","North Goa",15.47521673,73.82100456,,,
12,33,"Ideal High School ,( South Wing),taleigao Goa","North Goa",15.47480514,73.82068956,,,
12,34,"Ideal High School, ( West Wing ),taleigao Goa","North Goa",15.47505998,73.82097302,,,
12,35,"Hamara School,(managed by Kasturba Gandhi National Memorial Trust) Goa Branch,st Inez","North Goa",15.470887,73.820522,,,
13,1,"Govt Govt Primary School Manaswada, Chimbel, (west Wing)","North Goa",15.483499,73.8463323,,,
13,2,"Govt Govt Primary School, Manaswada, Chimbel, (east Wing)","North Goa",15.48308542,73.84993719,,,
13,3,"Provedoria Public Assistance Old Age Home","North Goa",15.483499,73.8463323,,,
13,4,"Village Panchayat Office, Chimbel, (south Wing)","North Goa",15.495854,73.872737,,,
13,5,"Village Panchayat Office, Chimbel (north Wing)","North Goa",15.495854,73.872737,,,
13,6,"Goa State Horticulture Corporation, Chimbel","North Goa",15.475685,73.843218,,,
13,7,"Govt Primary School, St Barbara, Chimbel, (north Wing)","North Goa",15.475685,73.843218,,,
13,8,"Govt Primary School, St Barbara, Chimbel, ( South Wing)","North Goa",15.475685,73.843218,,,
5,26,"Higher Secondary School Bldg Bldg At St Xavier's College,mapusa (room No No 203)","North Goa",15.599607,73.808453,,,
5,27,"Higher Secondary School Bldg Bldg At St Xavier's College,mapusa (room No No 204)","North Goa",15.599607,73.808453,,,
5,28,"Higher Secondary School Bldg Bldg At St Xavier's College Mapusa, H S S Hall of Arts Building, Mapusa","North Goa",15.599607,73.808453,,,
5,29,"Purushottam Walawalkar H S S School, Sundarabai Anant Kamat Lecture Hallkhorlim Mapusa (east Wing)","North Goa",15.595277,73.805336,,,
5,30,"Purushottam Walawalkar H S S School,ratnabai V Naique Burye Lecture Hall Khorlim Mapusa(west wing)","North Goa",15.595277,73.805336,,,
6,1,"Govt Primary School Chopdem Oxel Siolim","North Goa",15.636293,73.774202,,,
6,2,"Govt Primary School Bamanvado, Oxel(east Wing)","North Goa",15.634537,73.775296,,,
1,17,"Government Primary School Dandoswada, Mandrem","North Goa",15.682688,73.714571,,,
1,18,"Government Primary School Junaswada Mandrem","North Goa",15.670757,73.713615,,,
1,19,"Government Primary School Naikwada Mandrem","North Goa",15.68841,73.733196,,,
1,20,"Government Primary School Madhalamaj Mandrem(east Wing)","North Goa",15.664094,73.721459,,,
7,39,"Govt Govt Primary School, Tithavado, Nerul","North Goa",15.505864,73.785764,,,
13,35,"Village Panchayat Library, Near Football Ground, Bondir","North Goa",15.481938,73.842935,,,
13,36,"Room No 1, Near Football Ground, Bondir, St St Cruz","North Goa",15.4752218,73.8463857,,,
13,37,"St St Cruz Primary School, (north Wing), St St Cruz","North Goa",15.4810976,73.8471284,,,
13,38,"St St Cruz Primary School, (south Wing), St St Cruz","North Goa",15.4810976,73.8471284,,,
13,39,"Goa University, Faculty block A, Department of Physics","North Goa",15.459076,73.827166,,,
4,35,"Village Panchayat Bldg, Assonora (north Wing)","North Goa",15.619069,73.896248,,,
4,36,"Village Panchayat Bldg, Assonora (south Wing)","North Goa",15.6199185,73.896248,,,
4,37,"Govt Govt Primary School, Moitem, Assonora (west Wing)","North Goa",15.6190699,73.896248,,,
4,38,"Govt Govt Primary School, Moitem, Assonora (east Wing)","North Goa",15.625847,73.8827,,,
6,38,"Village Panchayat Office Verla","North Goa",15.590632,73.782409,,,
1,21,"Government Primary School,madhalamaj Mandrem (west Wing)","North Goa",15.664146,73.72133,,,
1,22,"Government Primary School Asvewada, Mandrem","North Goa",15.657121,73.719614,,,
1,23,"Government Primary School Deulwada Mandrem","North Goa",15.671222,73.722939,,,
1,24,"Jeejamata Bal Vikas Kendra, Askawada, Mandrem","North Goa",15.671883,73.725375,,,
1,25,"Government Primary School Deulwada Morjim (east Wing)","North Goa",15.636572,73.739676,,,
1,26,"Village Panchayat Morjim","North Goa",15.63651,73.739376,,,
1,27,"Government Primary School Mardiwada Morjim(east Wing)","North Goa",15.63465,73.730042,,,
1,28,"Government Primary School, Mardiwada Morjim (west Wing)","North Goa",15.634795,73.729935,,,
1,29,"Government Primary School Kannaikwada Morjim (east Wing)","North Goa",15.628823,73.735744,,,
1,30,"Government Primary School Kannaikwada Morjim(west Wing)","North Goa",15.633617,73.740036,,,
1,31,"Government Primary School Pokewada, Morjim","North Goa",15.631861,73.743989,,,
1,32,"Government Primary School Kattewada Morjim (east Wing)","North Goa",15.631096,73.736436,,,
13,9,"Govt Govt Primary/middle School, Kirlawada,(north Wing)","North Goa",15.4975057,73.86836,,,
13,28,"Bsnl, A Govt Govt of India Enterprise, Telephone Exchange, Bambolim, Alto St St Cruz","North Goa",15.461348,73.848348,,,
13,29,"St St Cruz High School (west Wing Wing 1), St St Cruz","North Goa",15.475648,73.84426,,,
13,30,"St St Cruz High School,(west Wing 2), St St Cruz, St St Agostinho, Calapor","North Goa",15.475648,73.84426,,,
13,31,"Urban Health & Training Centre, St St Cruz","North Goa",15.463592,73.858428,,,
13,32,"Office of National Association for the Blind, Segundo Bairo, Calapor (north wing)","North Goa",15.47543423,73.8405959,,,
13,33,"St St Cruz High School,(west Wing Wing 3), St St Cruz","North Goa",15.475648,73.848348,,,
13,34,"Office of National Association for the Blind, Segundo Bairo, Calapor, (south wing)","North Goa",15.475648,73.8405959,,,
14,1,"Govt Govt Primary & Middle School (n W ) Curca","North Goa",15.463773,73.882508,,,
14,2,"G P S S Gawalimoula","North Goa",15.457424,73.893339,,,
14,3,"Govt Govt Primary & Middle School (s W) Curca","North Goa",15.463773,73.882508,,,
1,33,"Government Primary School Government Primary School Kattewada Morjim (west Wing)","North Goa",15.631179,73.736265,,,
1,34,"Govt Govt Primary School Chopdem","North Goa",15.640513,73.758148,,,
2,8,"Govt Govt Primary School, Pethechawada (west South Wing)","North Goa",15.692459,73.760907,,,
2,9,"Govt Govt Primary School, Pethechawada (west North Wing)","North Goa",15.690972,73.760907,,,
2,10,"Govt Govt Primary School, Parastem","North Goa",15.720944,73.799454,,,
2,11,"Govt Govt Primary School Bhironda","North Goa",15.723764,73.785384,,,
2,12,"Hutatma Manohar Pednekar Govt Govt Primary School(east) Surbanwada","North Goa",15.715946,73.796257,,,
2,13,"Asst Asst District Education Inspector Conference Hall, Pernem","North Goa",15.715946,73.796257,,,
2,14,"Hutama Manohar Pednekar Govt Primary School (west) Surbanwada","North Goa",15.715946,73.796257,,,
2,15,"Government Higher Secondary School, Pernem","North Goa",15.720221,73.799752,,,
2,16,"Govt Govt Primary School, Naibag","North Goa",15.732986,73.796604,,,
2,17,"Government Primary & Middle School, Poroscadem","North Goa",15.740752,73.812246,,,
14,4,"G P S S Wadwad","North Goa",15.445593,73.864011,,,
14,5,"Balwadi Premises, Arcar","North Goa",15.463463,73.882647,,,
14,6,"G P S Bambolim","North Goa",15.462584,73.858012,,,
14,7,"G P S Pirbhat","North Goa",15.452155,73.852919,,,
14,8,"P W D D Office, G M C C Complex, Canturlim","North Goa",15.450019,73.863977,,,
14,9,"G P S S Siridao","North Goa",15.452729,73.859189,,,
14,10,"G P S (e W ), Paliem","North Goa",15.444611,73.864471,,,
14,11,"G P S (w (w W ), Paliem","North Goa",15.444611,73.864471,,,
14,12,"V P P Siridao","North Goa",15.443228,73.864863,,,
14,13,"V P P Ghar Batim(balwadi), Batim","North Goa",15.447682,73.883195,,,
14,14,"G P S , Gaonkar Waddo","North Goa",15.449756,73.888179,,,
14,15,"G P S S Maina","North Goa",15.455027,73.891835,,,
14,16,"G P S , Dando","North Goa",15.440112,73.886741,,,
8,9,"Govt Primary School Arraisvaddo, (east Wing) Nagoa","North Goa",15.544991,73.7663,,,
8,10,"Govt Primary School Arraisvaddo, (west Wing) Nagoa","North Goa",15.551606,73.760635,,,
8,11,"Govt Govt Primary School Sautawaddo, (north Wing) Calangute","North Goa",15.556082,73.756233,,,
8,12,"Govt Govt Primary School Sautowaddo, (south Wing) Calangute","North Goa",15.556082,73.756233,,,
8,13,"Govt Govt Primary School Sautawaddo, (central Wing) Calangute","North Goa",15.556082,73.756233,,,
6,39,"Govt Govt Primary School Lopeswado verla (east Wing)","North Goa",15.5907,73.782409,,,
6,40,"Sacred Heart High School Verla (north Wing)","North Goa",15.581708,73.748404,,,
6,41,"Sacred Heart High School Canca (south Wing)","North Goa",15.581708,73.748404,,,
9,31,"Sanjay School (south wing office Premises)alto Betim","North Goa",15.516458,73.834999,,,
9,32,"Village Panchayat Office, Panha de France","North Goa",15.51471,73.840114,,,
9,33,"Maritime school Building (grd (grd Flr) Virlosa (north wing)","North Goa",15.514559,73.839428,,,
9,34,"Maritime school Building (grd (grd Flr) Virlosa (south wing)","North Goa",15.513897,73.83857,,,
9,35,"Maritime school Building (grd (grd Flr) Virlosa (east wing)","North Goa",15.51307,73.837711,,,
9,36,"Govt Govt Primary School, (west wing) Betim","North Goa",15.512821,73.830515,,,
9,37,"Govt Govt Primary School, (east wing) Betim","North Goa",15.512822,73.830505,,,
9,38,"Govt Govt Primary School, (north wing) Betim","North Goa",15.512822,73.830515,,,
3,39,"Govt Govt Primary & Middle School, Shirodwadi (old School Building)","North Goa",15.614789,73.926398,,,
3,40,"Govt Govt Primary & Middle School, Shirodwadi (new School Building)","North Goa",15.614789,73.926398,,,
3,41,"Govt Govt Primary School, Bagwada, Mulgao","North Goa",15.620185,73.90667,,,
4,34,"St St Clara High School, Assonora (west Wing)","North Goa",15.6198239,73.8901729,,,
6,42,"Sacred Heart High School Canca (east Wing)","North Goa",15.581708,73.748404,,,
6,43,"Govt Govt Primary School Canca bandh (north Wing)","North Goa",15.599299,73.77867,,,
6,44,"Govt Govt Primary School Canca bandh (south Wing)","North Goa",15.599299,73.77867,,,
8,32,"Govt Govt Primary School Saipem Candolim","North Goa",15.521506,73.77248,,,
8,33,"Govt Govt Primary School Dando (south Wing) Candolim","North Goa",15.505715,73.770792,,,
20,36,"Government Primary School (north Wing) Mardol Ponda Goa","North Goa",15.442266,73.972661,,,
2,40,"Govt Govt Primary And Middle School, Casarvarnem (east North)","North Goa",15.716503,73.880641,,,
5,31,"Purushottam Walawalkar H S Schol Dr Balkrishna G S Cuvelkar lecture Hall Khorlim Mapusa(west Wing)","North Goa",15.595277,73.805336,,,
5,32,"Saraswat Vidyalay Khorlim Mapusa (east Wing)","North Goa",15.59492,73.805039,,,
5,33,"Saraswat Vidyalay Khorlim Mapusa (north Wing)","North Goa",15.59492,73.805039,,,
18,51,"Government Primary School, Saleli","North Goa",15.546413,74.085515,,,
18,52,"Government High School, Bhuipal","North Goa",15.542567,74.080499,,,
19,35,"Govt Govt Primary School, Barazan","North Goa",15.443373,74.064054,,,
19,36,"Govt Govt Primary School, Kantor","North Goa",15.444394,74.046121,,,
19,37,"Govt Govt Primary School, Par Parsol","North Goa",15.42289,74.053505,,,
19,38,"Govt Govt Primary School, Dhat (east Wing),","North Goa",15.419066,74.067493,,,
19,39,"Govt Govt Primary School, Dhat West Wing),","North Goa",15.419066,74.067493,,,
19,40,"Govt Govt Primary School, Kassailem (north Wing), Kassailem, Usgao","North Goa",15.513897,74.137695,,,
19,41,"Govt Govt Primary School, Kassailem (south Wing),","North Goa",15.53176,74.141815,,,
12,21,"Goa University Telephone Exchange,bsnl,dona Paula Goa","North Goa",15.465262,73.825352,,,
12,22,"Casa Do Povo De Taleigao, Old Village Panchayat Office,taleigao Goa","North Goa",15.46755318,73.81946537,,,
12,23,"Office of the Assistant Engineer,electricity Department,sd Iv,(billing Section)queunem Taleigao Goa","North Goa",15.46658543,73.8118512,,,
12,24,"Office of the Assistant Engineer,electricity Department,sd Iv,(j E Room)queunem Taleigao Taleigao Goa","North Goa",15.46653547,73.81183101,,,
12,25,"Office of the Assistant Engineer, Electricity Department, Sd Iv,(technical Section)queunem Taleigao","North Goa",15.46646978,73.81220296,,,
12,26,"Govt Govt Primary School, (north Wing) Nagali Taliegao Goa","North Goa",15.46459895,73.815526,,,
12,27,"Govt Govt Primary School, (south Wing) Nagali,taleigao Goa","North Goa",15.46477899,73.81555822,,,
12,28,"Govt Govt Primary School,(std Ii & Iv Class),st Paul Paul Taleigao Taleigao Goa","North Goa",15.47077091,73.8213461,,,
12,29,"Govt Govt Primary School ,(std ,(std I & Iii Class),st Paul Taleigao Goa","North Goa",15.47070559,73.8213378,,,
11,17,"Govt Govt Primary School, Portais","North Goa",15.49351,73.832796,"Urban area",7,
11,18,"Directorate of Archieves & Archeology, Altinho","North Goa",15.491194,73.82962,"Urban area",7,
11,19,"Massano de Amorim Library hall, Next to Primary Health Centre, Panaji","North Goa",15.498307,73.827088,"Urban area",7,
11,20,"Office Bldg of Directorate of Education, Panaji","North Goa",15.496901,73.823054,"Urban area",7,
11,21,"Office of the Chief Conservator of Forests, Dayanand Smriti Bldg , Panaji","North Goa",15.496009,73.825198,"Urban area",7,
11,22,"Goa College of Pharmacy, Room No 1 , Panaji","North Goa",15.4941953,73.8214711,"Urban area",7,
3,18,"Zonal Agriculture Office, Bicholim","North Goa",15.585299,73.95489,,,
3,19,"Goa I D C Office, Bicholim","North Goa",15.582876,73.955613,,,
3,20,"Goa I D C Hall, Bicholim","North Goa",15.582876,73.955613,,,
3,21,"Govt Govt Primary School, (north Wing) Bazarpeth, Bicholim","North Goa",15.588562,73.948207,,,
3,22,"Govt Govt Primary School, (south Wing) Bazarpeth, Bicholim","North Goa",15.588562,73.948207,,,
3,23,"Radhakrishna High School, Bicholim (north Wing)","North Goa",15.587883,73.9463,,,
3,24,"Radhakrishna High School, Bicholim (west Wing)","North Goa",15.587883,73.9463,,,
3,25,"Reading Room, Bicholim Muncipal Council","North Goa",15.587537,73.946668,,,
3,26,"Govt Govt Primary School, Katarwada, Bicholim","North Goa",15.580334,73.950165,,,
3,27,"Govt Govt Primary School Lamgao (east Wing)","North Goa",15.587679,73.940933,,,
3,28,"Govt Govt Primary School Lamgao (west Wing)","North Goa",15.587679,73.940933,,,
15,10,"Villagepanchayat Office, St St Estevam","North Goa",15.532163,73.948575,,,
15,11,"Office of the Jr Jr Engineer, St St Estevam","North Goa",15.531298,73.948178,,,
15,12,"St St Thereza High School, Palmar (east Wing)","North Goa",15.535339,73.95213,,,
15,13,"Govt Govt Primary School, Polwaddo","North Goa",15.534451,73.952635,,,
15,14,"St St Thereza High School, Palmar (west Wing)","North Goa",15.535339,73.95213,,,
15,15,"Govt Govt Primary School, Khadapwada (east Wing)","North Goa",15.515543,73.945487,,,
15,16,"Govt Govt Primary School, Khadapwada (west Wing)","North Goa",15.515543,73.945487,,,
15,17,"Govt Govt Primary School, Gawantwada","North Goa",15.50718,73.953448,,,
15,18,"Govt Govt Primary School, Khadapwada (side Bldg)","North Goa",15.51361,73.945372,,,
15,19,"Sharada Vidyalaya, Khadapwada, Cumbarjua","North Goa",15.513543,73.945922,,,
15,20,"Govt Govt Primary School, Khadapwada (old Bldg)","North Goa",15.512576,73.947327,,,
15,21,"House of Smt Smt Alice Afonso, Gaundalim","North Goa",15.513982,73.9421,,,
15,22,"Office f Z A O O Tiswadi, Ella Farm Baiguinim Old Goa","North Goa",15.500747,73.909296,,,
15,23,"Old Goa Education Institute, Ella","North Goa",15.494924,73.912341,,,
15,24,"Govt Govt Primary School , Mollar(east wing)","North Goa",15.497513,73.928638,,,
15,25,"Govt Govt Primary School, Ella (east wing) Mollar Se Old Goa","North Goa",15.497513,73.928638,,,
15,26,"Govt Govt Primary School, Ella(west Wing) Se Old Goa","North Goa",15.500747,73.909296,,,
15,27,"Village Panchayat Office, Corlim","North Goa",15.488299,73.935491,,,
15,28,"Multipurpose Community Hall, Corlim","North Goa",15.488299,73.935491,,,
16,21,"Govt Govt Primary School Madel (west wing)","North Goa",15.523062,73.870595,,,
16,22,"Govt Govt Primary School Madel (east wing)","North Goa",15.523062,73.870595,,,
16,23,"Govt Govt Primary Middle School Gaonkarwada (east wing) Naroa","North Goa",15.551069,73.921286,,,
16,24,"Govt Govt Primary Middle School Gaonkarwada (west wing) Narao","North Goa",15.551069,73.921286,,,
16,25,"Govt Govt Primary School Tarwada Pilgao","North Goa",15.553607,73.950109,,,
16,26,"Ideal High School","North Goa",15.558586,73.951683,,,
16,27,"Govt Govt Primary School Bagwada","North Goa",15.562655,73.966288,,,
16,28,"Govt Primary School Mathwada","North Goa",15.552358,73.966001,,,
16,29,"Narayan Zantye College of Commerce (vathadev) ( West Wing)","North Goa",15.593481,73.943354,,,
16,30,"Narayan Zantye College of Commerce, (vathadev) ( East wing)","North Goa",15.593481,73.943354,,,
16,31,"Govt Govt Primary School Vailowada Sarvan","North Goa",15.573042,73.965743,,,
16,32,"Govt Govt Primary School Kothi Karapur","North Goa",15.55756,73.977169,,,
16,33,"Govt Primary School Kudapwada","North Goa",15.557333,73.986598,,,
16,34,"Govt Primary School Bholwada","North Goa",15.562999,73.988674,,,
17,1,"Govt College of Arts Science & Commerce,sanquelim (west Wing)","North Goa",15.561702,74.015318,,,
17,2,"Multipurpose Hall,sanquelim","North Goa",15.555875,74.015801,,,
17,3,"Govt Primary School Gauthan","North Goa",15.550351,74.016392,,,
17,4,"Laxmibai G Sanzgiri Memorial School,new wada,sanquelim","North Goa",15.559829,74.013237,,,
17,5,"Govt Higher Scondary School,sanquelim (east Wing)","North Goa",15.561702,74.015313,,,
17,25,"Govt Govt Primary School, Betalwada Amona (north Wing)","North Goa",15.534363,73.982129,,,
17,26,"Govt Govt Primary School, Betalwada Amona (south Wing)","North Goa",15.534363,73.982129,,,
17,27,"Gram Panchayat Vachanalaya,ambedkarwada,amona","North Goa",15.536598,73.9834,,,
17,28,"Govt Primary School, Tarwada, Surla","North Goa",15.498139,74.02119,,,
17,29,"Govt Primary School, Khadchal, Surla","North Goa",15.5087,74.029604,,,
18,1,"Govt Govt Primary School, Tulshimala","North Goa",15.580806,74.008879,,,
18,2,"Government Primary School, Podocem","North Goa",15.580806,74.01023,,,
18,3,"Government Primary School, Belwada (east Wing)","North Goa",15.589758,74.02771879,,,
18,4,"Government Primary School, Belwada (west Wing)","North Goa",15.589758,74.027718,,,
18,5,"Government Primary School, Poriem","North Goa",15.58973,74.027689,,,
18,6,"Government Primary School, Gholwada","North Goa",15.587635,74.029738,,,
18,7,"Govt Govt Primary School Rehabilitation Colony, Morlem","North Goa",15.57337,74.04643,,,
18,8,"Govt Govt High School Rehabilitation Colony, Morlem","North Goa",15.573432,74.045684,,,
18,9,"Government Primary School,ghodemal, Morlem","North Goa",15.586359,74.053409,,,
18,10,"Government Primary School, Kesarkarwada","North Goa",15.597749,74.048954,,,
18,11,"Govt High school, Querim (east Wing),","North Goa",15.611673,74.064875,,,
18,12,"Govt Primary School, Gonteli(i),","North Goa",15.606463,74.060106,,,
18,13,"Government Primary School, Shiroli","North Goa",15.622104,74.06421,,,
18,14,"Government Primary School, Querim (east Wing)","North Goa",15.60491,74.070835,,,
18,36,"Government Primary School, (dongarwada)","North Goa",15.490858,74.089323,,,
18,37,"Government High School, Advoi","North Goa",15.482749,74.11904,,,
18,38,"Government Primary School, Advoi","North Goa",15.49885,74.104851,,,
18,39,"Government Primary School, Codiem","North Goa",15.503114,74.088712,,,
18,40,"Government High School, Pissurlem(east Wing),","North Goa",15.529907,74.070907,,,
18,41,"Govt High School, Pissurlem (west wing)","North Goa",15.529856,74.070924,,,
18,42,"Govt Primary School, Cumbarcond","North Goa",15.524095,74.088554,,,
18,43,"Govt Govt Primary School Gaonkarwada Honda (ew)","North Goa",15.557689,74.058255,,,
18,44,"Govt Govt Primary School Gaonkarwada Honda (ww),","North Goa",15.557604,74.058178,,,
18,45,"Govt Govt Primary School, Honda","North Goa",15.547836,74.050938,,,
18,46,"Village Panchayat,honda","North Goa",15.546366,74.053323,,,
19,1,"Govt Govt Primary School, Nanus","North Goa",15.51324337,74.12770149,,,
19,2,"Govt Govt Primary School, Nayawada","North Goa",15.52796708,74.13151559,,,
19,3,"Govt Govt High School, Valpoi","North Goa",15.52969656,74.13370147,,,
19,4,"Govt Govt Primary School, Massordem","North Goa",15.52537271,74.1419717,,,
19,5,"Govt Higher Secondary School, Valpoi","North Goa",15.5453709,74.1338607,,,
19,6,"Govt Govt Middle School, Valpoi","North Goa",15.5453709,74.1338607,,,
19,7,"Govt Govt Primary School, Valpoi","North Goa",15.5453709,74.1338607,,,
19,8,"Govt Govt Primary School, Velus","North Goa",15.5471522,74.1385167,,,
19,9,"Govt Govt Primary School, Gundelwada, Velus","North Goa",15.5471522,74.1385167,,,
19,10,"Govt Govt Primary School, Carambolim Brahma","North Goa",15.444394,74.046121,,,
20,1,"Government Primary School (north Wing) Tariwada,marcel Ponda Goa Tariwada,marcel","North Goa",15.516009,73.951013,,,
20,2,"Government Primary School (south Wing) Tariwada, Marcel Ponda Goa Tariwada,marcel","North Goa",15.515972,73.950978,,,
20,4,"Government Primary School(north Wing)orgao Marcel Orgao Marcel","North Goa",15.51162,73.960755,,,
20,5,"Government Primary School(south Wing) Orgao Marcel Orgao Marcel","North Goa",15.511667,73.960715,,,
20,6,"Government Primary School (north Wing),tivrem Ponda Goa Tivrem Marcel","North Goa",15.502675,73.962734,,,
20,7,"Government Primary School(south Wing), Tivrem Ponda Goa Tivrem Marcel","North Goa",15.425882,73.990066,,,
20,8,"Government Primary School (north Wing) Gaonkarwada Candola Ponda Goa Gaonkarwada Candola","North Goa",15.521377,73.964617,,,
20,9,"Government Primary School (south Wing) Gaonkarwada Candola Ponda Goa Gaonkarwada Candola","North Goa",15.521428,73.964585,,,
20,10,"Government Primary School (west Wing) Gaonkarwada Candola Ponda Goa","North Goa",15.52133,73.956372,,,
20,11,"Government Primary School Amyewada,candola Ponda Goa","North Goa",15.53184,73.957644,,,
20,12,"Government Primary School Haldanwada,candola Ponda Goa","North Goa",15.516215,73.972624,,,
20,13,"Government Primary School (north Wing) Betki Ponda Goa Betki Gaonkarwada","North Goa",15.461229,73.978575,,,
20,14,"Government Primary School (south Wing) Betki Ponda Goa Betki Gaonkarwada","North Goa",15.461203,73.978575,,,
20,15,"Government Primary School Volvoi Ponda Goa Volvoi Deulwda","North Goa",15.488593,74.013911,,,
20,16,"Government Primary School, Sateribhat Volvoi Ponda Goa","North Goa",15.487983,74.009351,,,
20,17,"Government Primary School Pali Savoi Verem Ponda Goa, Palwada Savoi Verem","North Goa",15.484282,74.011948,,,
20,18,"Government Primary School Savoi,ponda Goa","North Goa",15.490082,74.00779,,,
20,37,"Government Primary School (south Wing) Mardol Ponda Goa","North Goa",15.442207,73.972709,,,
2,18,"Govt Govt Primary School, Bhatpauni","North Goa",15.73342,73.807912,,,
2,19,"Govt Govt Primary School, Uguem (east South)","North Goa",15.751202,73.836708,,,
2,20,"Govt Govt Primary School, Uguem (east North)","North Goa",15.751697,73.836794,,,
2,21,"Govt Govt Primary School, Tamboxem","North Goa",15.760619,73.84263,,,
2,22,"Govt Govt Primary School (west Wing), Parabwada","North Goa",15.787649,73.862972,,,
2,23,"Govt Govt Primary School (east Wing), Parabwada","North Goa",15.787649,73.863291,,,
2,24,"Shahid Karnal Singh Banipal Government Primary School Patradevi Torxem","North Goa",15.796383,73.861849,,,
2,25,"Govt Govt Primary & Middle School, Gauthanwada","North Goa",15.758141,73.852365,,,
2,26,"Government Primary & Middle School Varkhand, (west North)","North Goa",15.725757,73.837051,,,
9,5,"Govt Govt Primary School (north Wing) Carrem,socorro Porvorim","North Goa",15.55079,73.824615,,,
9,6,"Holy Family High School(1 North Wing),socorro","North Goa",15.543327,73.822658,"Urban area",9,
9,7,"Holy Family High School(1 South Wing),socorro","North Goa",15.543327,73.822658,"Urban area",9,
20,38,"Government Primary School Khedem Priol Ponda Goa","North Goa",15.439585,73.978114,,,
20,39,"Government Primary School Gauthan Priol Ponda Goa","North Goa",15.436813,73.991179,,,
20,40,"Government Primary School Apewal Priol Ponda Goa","North Goa",15.437506,74.00668,,,
20,41,"Government Primary School Magilwada Priol Ponda Goa","North Goa",15.422619,73.994044,,,
21,1,"Government Primary School(east Wing) Bazar, Khandepar Ponda Goa","North Goa",15.425016,74.044864,,,
21,2,"Government Primary School (west Wing) Bazar, Khandepar Ponda Goa","North Goa",15.424948,74.044923,,,
21,3,"Lokmanya Village Library Near Opa Water Woks, Opa Khandepar Ponda Goa","North Goa",15.424948,74.045486,,,
21,4,"G P S S Gauthan Khandepar (east Wing)","North Goa",15.437364,74.04062,,,
21,5,"Governmaent Primary School (west Wing) Gauthan Khandepar Ponda Goa","North Goa",15.43732,74.04062,,,
21,6,"Government Primary School Kelbai Tambdi Curti/curti Ponda Goa","North Goa",15.425978,74.012956,,,
21,7,"Government Primary School, Koparwada/curti","North Goa",15.41691,74.022537,,,
9,8,"Holy Family High School (north Wing) Socorro porvorim","North Goa",15.543327,73.822658,"Urban area",9,
9,9,"Holy Family High School (south Wing) Socorro porvorim","North Goa",15.543327,73.822658,"Urban area",9,
9,10,"Govt Primery School (north Wing) Zoswado,socorro Porvorim","North Goa",15.549136,73.832523,,,
9,11,"Govt Govt Primery School (south Wing) Zoswado,socorro Porvorim","North Goa",15.549136,73.832523,,,
9,12,"O/o Asst Asst Eng Electricity Dept Dept sub Div Ii (north wing), Porvorim","North Goa",15.537265,73.827067,"Urban area",9,
9,13,"O/o Asst Asst Eng Electricity Dept Dept sub Div Ii (south wing), Porvorim","North Goa",15.537265,73.827067,"Urban area",9,
9,14,"Govt Govt Primary School (north Wing) Paitona,porvorim","North Goa",15.545539,73.830393,,,
9,15,"Govt Govt Primary School (south Wing) Paitona,porvorim","North Goa",15.545539,73.830393,,,
9,16,"Alto Porvorim Sports and Cultural Club","North Goa",15.530799,73.828825,"Urban area",9,
9,17,"Govt Govt Primary School, Quitla (north Wing)porvorim","North Goa",15.537446,73.854619,,,
9,18,"Govt Govt Primary School, Quitla (south Wing)porvorim","North Goa",15.537446,73.854619,,,
21,8,"Balbhavan(balwadi), Panchayat Bldg Bldg Mestawada, Curti","North Goa",15.406435,74.019053,,,
21,9,"Government Primary School (west Wing), Malshe Curti Ponda Goa","North Goa",15.404578,74.023288,,,
21,10,"Government Primary School (east Wing), Malshe, Curti Ponda Goa","North Goa",15.406755,74.023301,,,
21,11,"Electricity Dept Dept Div Iii(north Wing), Curti Ponda Goa","North Goa",15.411756,74.01022,,,
21,12,"Electricity Dept Dept Div Iii (south Wing) Curti Ponda Goa","North Goa",15.411687,74.010252,,,
21,13,"Sports Authority Of India Hostel, Curti Ponda Goa","North Goa",15.406755,74.0047,,,
21,31,"Government Primary School (east Wing) Durgabhat Ponda Goa","North Goa",15.400852,74.011538,,,
21,32,"Government Primary School (middle Wing) Durgabhat Ponda Goa","North Goa",15.399818,74.013849,,,
22,1,"Government Primary School ,old Building Padal Betoda,","North Goa",15.391969,74.026912,,,
22,2,"Government Primary School(north Wing), New Building Padal Betoda","North Goa",15.392091,74.026946,,,
22,3,"Government High School, Padul Betoda","North Goa",15.392078,74.026909,,,
9,19,"Sunandabai Bandodkar High School, Umbra Porvorim","North Goa",15.532696,73.85589,,,
9,20,"District Institute of Education and training (east Wing 1), Penha de France,porvorim","North Goa",15.524736,73.828677,"Urban area",9,
10,4,"Sport Complex New Building (south Wing) Peddem Mapusa","North Goa",15.604686,73.835651,,,
10,5,"Industrial training institute instructors room( east wings) Peddem Mapusa","North Goa",15.59245,73.836681,,,
10,6,"Industrial training institute instructors room( West wings) Peddem Mapusa","North Goa",15.591128,73.837025,,,
10,7,"Govt Govt Technical High school,moira( Old Building)","North Goa",15.590962,73.83857,,,
10,8,"Govt Govt Technical High school, Moira(new Building)","North Goa",15.590136,73.837196,,,
10,9,"St St Xaviers High School, Moira (north Wing)","North Goa",15.596228,73.848402,,,
10,10,"St Xavier High School,moira (south Wing)","North Goa",15.596228,73.848402,,,
10,11,"Moira Club, Moira","North Goa",15.5943,73.83947,,,
10,12,"Govt Primary School , Bharvanwado (east Wing) Nachinola","North Goa",15.590402,73.855499,,,
10,13,"Govt Primary School,bharwanwado (west Wing) Nachinola","North Goa",15.590402,73.855499,,,
10,14,"V P P Office,nachinola","North Goa",15.591381,73.85515,,,
10,15,"Govt Govt Primary School, Boa Vista (east Wing)","North Goa",15.596228,73.829442,,,
10,16,"Govt Govt Primary School Boa Vista,(south Wing)","North Goa",15.596228,73.829442,,,
10,17,"Village Panchayat Office, Bastora","North Goa",15.582142,73.821671,,,
10,18,"Office of the Talathi of Bastora Village Panchayat, Bastora","North Goa",15.582142,73.821671,,,
10,19,"Comunidade Bldg, Ucassaim","North Goa",15.578871,73.837038,,,
10,20,"Govt Govt Primary School, Kuttawada Ucassaim","North Goa",15.589146,73.853168,,,
10,21,"Govt Govt Primary School, Paliem Ucassaim","North Goa",15.597762,73.851747,,,
10,22,"Village Panchayat Bldg , Ucassaiem","North Goa",15.578489,73.831845,,,
10,23,"Vidhya Prabhoddhini School, Pomburpa(east Wing 1)","North Goa",15.56126,73.864828,,,
18,15,"Govt Govt High School, Querim (north Wing),","North Goa",15.61165,74.064725,,,
22,5,"Government Primary School, Tallem Betoda","North Goa",15.376323,74.030339,,,
22,6,"Government Primary School, Codar Gaonkarwada","North Goa",15.387653,74.040395,,,
22,7,"Government Primary School(north Wing), Galwada, Nirankal,","North Goa",15.386257,74.040883,,,
22,8,"Government Primary School(south Wing), Galwada, Nirankal,","North Goa",15.386233,74.040926,,,
22,9,"Government Primary School(new Building), Paz, Shiroda","North Goa",15.32889,74.026195,,,
22,10,"Government Primary School, Kumbharwada Nirankal","North Goa",15.334187,74.023765,,,
22,11,"Government Primary School(east Wing), Talsai Borim,","North Goa",15.366302,74.012779,,,
22,12,"Government Primary School(west Wing), Talsai Borim","North Goa",15.362828,74.029436,,,
22,13,"Government Primary School, Deulwada Borim,","North Goa",15.368528,74.011872,,,
22,14,"Government Primary School, Paniwada Borim","North Goa",15.366604,74.003646,,,
22,15,"Government Primary School, Tamshirem (east Wing) Borim","North Goa",15.364007,73.988148,,,
22,17,"Government Primary School(north Wing), Tishem Borim","North Goa",15.350568,74.0066272,,,
18,16,"Govt Govt Primary School, Querim, (west Wing),","North Goa",15.605078,74.07073,,,
18,17,"Government Primary School Rehabilitation Colony, Qualavade, Ravona","North Goa",15.617558,74.034456,,,
18,18,"Govt Govt Primary School Madhalawada, Ravana,","North Goa",15.612578,74.033523,,,
18,19,"Government Primary School, Surla","North Goa",15.669592,74.173451,,,
18,20,"Government Primary School, Iverim Buzruco,","North Goa",15.630995,74.145543,,,
18,21,"Government Primary School, Charaunem","North Goa",15.627436,74.129272,,,
18,22,"Government High School Thane (south Wing),","North Goa",15.60436,74.141723,,,
18,23,"Government High School, Thane (north Wing)","North Goa",15.604316,74.141723,,,
18,24,"Government Primary School, Golauli","North Goa",15.623303,74.157897,,,
18,25,"Government Primary School, Deulwada Pal","North Goa",15.593337,74.134704,,,
18,26,"Govt Govt Primary School, Sawant Wada Pal","North Goa",15.587984,74.136841,,,
18,27,"Government Primary School, Copardem","North Goa",15.561637,74.125238,,,
18,28,"Government Primary School, Mauxi (east Wing)","North Goa",15.545513,74.118227,,,
18,29,"Government Primary School, Mauxi (west Wing)","North Goa",15.54552,74.118239,,,
18,30,"Government Primary School, Nagve","North Goa",15.530933,74.117194,,,
18,31,"Government Primary School, Zarme","North Goa",15.573024,74.102582,,,
18,32,"Government High School, Dabem","North Goa",15.558676,74.108515,,,
18,33,"Government Primary School, Sanvorcem","North Goa",15.502168,74.135176,,,
18,34,"Government Primary School, Birondem","North Goa",15.487981,74.13421,,,
18,35,"Government Middle School, Padeli","North Goa",15.482749,74.11904,,,
19,11,"Govt Govt Primary School, Nagargao","North Goa",15.563774,74.158465,,,
19,12,"Govt Govt Primary School, Ambede","North Goa",15.5571,74.160118,,,
19,13,"Govt Govt Primary School, Dhave","North Goa",15.55334602,74.17708252,,,
19,14,"Govt Govt Primary School, Ustem","North Goa",15.56204319,74.18934128,,,
22,18,"Government Primary School(south Wing), Tishem Borim,","North Goa",15.350568,74.0066272,,,
22,19,"Government Primary School(north Wing), Khazordem Borim,","North Goa",15.359122,74.002278,,,
22,20,"Government Primary School(south Wing), Khazordem Borim,","North Goa",15.359065,74.002302,,,
22,21,"Government Primary School, Tarvalem Shiroda,","North Goa",15.343018,74.016885,,,
22,22,"Government Primary School, Dongar Karmanem","North Goa",15.344384,74.029205,,,
22,23,"Government Primary School, Vazem Shiroda,","North Goa",15.334666,74.018849,,,
23,7,"Government Primary School, Dutolem,marcaim","North Goa",15.425251,73.946258,,,
23,8,"Government Primary School, Mahalwada, Marcaim (n W )","North Goa",15.409515,73.949938,,,
23,9,"Government Primary School, Mahalwada, Marcaim (s (s W)","North Goa",15.42264,73.958724,,,
23,10,"Government Primary School, Adan, Marcaim (n W )","North Goa",15.418381,73.928904,,,
23,11,"Government Primary School, Adan, Marcaim (s W )","North Goa",15.418461,73.928979,,,
23,12,"Government Primary School, Marcaim Centre, Marcaim","North Goa",15.41941,73.945085,,,
19,15,"Govt Govt Primary School, Codal","North Goa",15.576011,74.196451,,,
19,16,"Govt Govt Middle School, Bambar","North Goa",15.58786,74.19095258,,,
19,17,"Govt Govt Primary School, Cudcem","North Goa",15.531952,74.165485,,,
19,18,"Govt Govt Primary School, Savordem","North Goa",15.528334,74.172512,,,
19,19,"Govt Govt Primary School, Carmali Budruk","North Goa",15.50959139,74.17703564,,,
19,20,"Govt Govt Primary School, Cumthol","North Goa",15.51532327,74.20224691,,,
19,21,"Govt Govt Primary School, Velguem (e Wing),","North Goa",15.52069949,74.15420328,,,
19,22,"Govt Govt Primary School, Velguem (w Wing),","North Goa",15.52069949,74.15420328,,,
19,23,"Govt Govt Primary School, Codique","North Goa",15.50461385,74.13968414,,,
19,24,"Govt Govt Middle School, Cotorem","North Goa",15.495797,74.146323,,,
19,25,"Govt Govt Primary School, Sirsodem","North Goa",15.48384,74.168392,,,
19,26,"Govt Govt Primary School, Gawane","North Goa",15.48384,74.168392,,,
23,13,"Government Primary School, Parampoi, Marcaim","North Goa",15.41678,73.942616,,,
23,14,"Government Primary School, Warad, Gaunem","North Goa",15.409331,73.961417,,,
23,15,"Government Primary School, Gaunem, Bandora (n W )","North Goa",15.416912,73.968839,,,
23,16,"Government Primary School, Gaunem, Bandora (s W )","North Goa",15.416886,73.968858,,,
23,17,"Government Primary School, Chirputem, Bandora (n W )","North Goa",15.402755,73.977041,,,
23,18,"Government Primary School, Chirputem, Bandora (s W )","North Goa",15.410676,73.996428,,,
23,19,"Government Primary School, Kurpas, Bandora (s W )","North Goa",15.404079,73.984635,,,
23,20,"Government Primary School, Kurpas, Bandora (n W )","North Goa",15.404045,73.984546,,,
23,21,"Village Panchayat Bandora","North Goa",15.404291,73.985091,,,
23,22,"Communidade Office Bldg , Kurpas Bandora","North Goa",15.404451,73.984433,,,
23,23,"Rajmata Padmawati Saundekar Raje High School, Bokodbag, Bandora,(sw),","North Goa",15.402755,73.977041,,,
23,24,"Government Primary School, Kharwada, Bandora","North Goa",15.404811,73.963499,,,
19,27,"Govt Govt Primary School, Shel Melaulim,","North Goa",15.454254,74.142734,,,
19,28,"Govt Govt Primary School, Murmune","North Goa",15.463212,74.121435,,,
19,29,"Govt Govt Primary School, Guleli","North Goa",15.495797,74.146323,,,
19,30,"Govt Govt Primary School, Dhamshe,","North Goa",15.482873,74.137104,,,
19,31,"Govt Govt Primary School, Ganjem","North Goa",15.466169,74.089056,,,
19,32,"Govt Govt Primary School, Nanus","North Goa",15.461363,74.070524,,,
19,33,"Govt Govt Primary School, Tiral (east Wing),","North Goa",15.447116,74.061788,,,
19,34,"Govt Govt Primary School, Tiral (west Wing","North Goa",15.447116,74.061788,,,
22,24,"Government Primary School, Haldai Shiroda,","North Goa",15.331857,74.013428,,,
22,25,"Government Primary School(north Wing), Karai Shiroda,","North Goa",15.325149,74.017717,,,
22,26,"Government Primary School(south Wing), Karai Shiroda","North Goa",15.325126,74.017669,,,
22,27,"Government Primary School(north Wing), Chun Bazar Shiroda","North Goa",15.321809,74.033478,,,
22,28,"Government Primary School(south Wing), Chun Bazar Shiroda","North Goa",15.321706,74.033585,,,
22,29,"Government Primary School(old Building), Paz Shiroda","North Goa",15.331924,74.074486,,,
22,30,"Government Primary School, Makadsai, Shiroda,","North Goa",15.333341,74.059889,,,
22,31,"Government Primary School, Torla Shiroda","North Goa",15.325847,74.055458,,,
22,32,"Government Primary School(east Wing), Bazar Shiroda","North Goa",15.31973,74.029417,,,
22,33,"Government Primary School Pedem Shiroda","North Goa",15.319649,74.029242,,,
22,34,"Government Primary School(west Wing), Bazar Shiroda","North Goa",15.31966,74.029401,,,
22,35,"Government Primary School, Tariwada Shiroda","North Goa",15.314222,74.020233,,,
22,36,"Government Primary School(west Wing), Socrem Shiroda","North Goa",15.308766,74.023269,,,
22,38,"Government Primary School, Dabolim Shiroda","North Goa",15.30971,74.044129,,,
22,39,"Government Primary School, Vazangal Shiroda","North Goa",15.30265,74.055802,,,
22,40,"Government Primary School, Mudai Panchawadi","North Goa",15.309159,74.078643,,,
22,41,"Government Primary School, Amlai Panchawadi","North Goa",15.299478,74.071337,,,
23,1,"Government Primary School, Bazar, Manaswada, Cundaim (n W )","North Goa",15.460802,73.959821,,,
23,2,"Government Primary School, Bazar,manaswada, Cundaim (s W )","North Goa",15.460815,73.959771,,,
23,3,"Government Middle School,dassolwada, Cundaim","North Goa",15.450157,73.953727,,,
23,4,"Government Primary School, Wadem, Cundaim (n W )","North Goa",15.438975,73.95365,,,
23,5,"Government Primary School, Wadem, Cundaim (s W )","North Goa",15.438952,73.953642,,,
23,6,"Government Primary School, Honso, Marcaim","North Goa",15.431909,73.951863,,,
17,6,"Progress High School, Sanquelim","North Goa",15.564095,74.007051,,,
17,7,"Govt Higher Scondary School, Sanquelim (west Wing)","North Goa",15.561702,74.015313,,,
17,8,"Govt Primary School Deulwada Virdi","North Goa",15.56219,74.023712,,,
17,9,"Govt Primary School Kharekhajan,virdi","North Goa",15.548743,73.980555,,,
17,10,"Govt College of Arts Science & Commerce,sanquelim (east Wing)","North Goa",15.561702,74.015318,,,
17,11,"Govt Primary School Pratapnagar, Arvalem","North Goa",15.555506,74.029797,,,
17,12,"Govt Primary School ,khalche Arvalem(east Wing)","North Goa",15.552718,74.027131,,,
17,13,"Govt Primary School ,khalche Arvalem(west Wing)","North Goa",15.552718,74.027131,,,
17,14,"Govt Primary School,varche Arvalem (north Wing)","North Goa",15.564089,74.045056,,,
17,15,"Govt Primary School,varche Arvalem( South Wing)","North Goa",15.564089,74.045056,,,
17,16,"Govt Primary School,falwadi Kudne","North Goa",15.535358,74.020482,,,
17,17,"Govt Primary School,dingnem,surla","North Goa",15.523224,74.035408,,,
17,18,"Govt Primary School Gaonkarwada Kudne (west Wing),","North Goa",15.54458,74.007382,,,
17,19,"Govt Primary School Gaonkarwada Kudne (east Wing)","North Goa",15.54458,74.007382,,,
17,20,"Govt Govt Primary School Navelim","North Goa",15.529827,74.007275,,,
17,21,"Govt Govt High School Navelim","North Goa",15.529605,74.007189,,,
17,22,"Govt Primary School Fanaswadi","North Goa",15.528145,74.020608,,,
17,23,"Govt Primary School Maina,navelim","North Goa",15.505208,74.005668,,,
17,24,"Govt Primary School Kharwada,amona","North Goa",15.533301,73.973342,,,
38,16,"Government Primary School Dabal","South Goa",15.357756,74.109344,,,
38,17,"Government Primary School Camarcond","South Goa",15.314884,74.096456,,,
38,18,"Government Primary School Vaghona","South Goa",15.33778,74.124394,,,
38,19,"Government Primary School Kirlapal","South Goa",15.327581,74.126698,,,
38,20,"Government Primary School Bandol","South Goa",15.303331,74.127154,,,
38,21,"Government Primary School Cormonem","South Goa",15.320345,74.143668,,,
38,22,"Government Primary School Dhat","South Goa",15.349384,74.169326,,,
38,23,"Government Primary School Casavlim","South Goa",15.370776,74.212459,,,
38,24,"Government Primary School Mollem","South Goa",15.374859,74.22775,,,
38,25,"Govt Primary School, Collem (new Bldg )","South Goa",15.340763,74.24243,,,
38,26,"Govt Primary School, Collem (old Bldg )(north Wing)","South Goa",15.340463,74.242395,,,
38,27,"Govt Primary School, Collem (old Bldg )(south Wing)","South Goa",15.340377,74.242347,,,
39,37,"Govt Govt Primary School Pirla","South Goa",15.111404,74.099436,,,
39,38,"Govt Govt Primary School, Cazur","South Goa",15.075107,74.16029,,,
39,39,"Govt Govt Primary School Vichundrem","South Goa",15.235165,74.151428,,,
39,40,"Govt Primary School Nundem","South Goa",15.07635,74.203205,,,
39,41,"Govt Primary School Margawada","South Goa",15.09624,74.218912,,,
39,42,"Govt Primary School Verlem","South Goa",15.078008,74.238138,,,
39,43,"Govt Primary School Salgini","South Goa",15.057205,74.230242,,,
37,9,"Govt Govt High School Sheldem Quepem (west Wing)","South Goa",15.238822,74.082961,,,
37,10,"Gram Panchayat Ground Pavilion Room,tilamol","South Goa",15.223925,74.084466,,,
37,11,"Government Primary School, Kumbharwada","South Goa",15.228229,74.078662,,,
37,12,"Electricity Department Section Office,tilamol, Xeldem","South Goa",15.221034,74.086293,,,
37,13,"Government Primary School, Cacumordi (st (st Cruz)","South Goa",15.239233,74.095683,,,
37,14,"Govt Govt Primary School Betmordi Room No 2","South Goa",15.230305,74.100189,,,
37,15,"Govt Govt Primary School, Betmordi Room No No 1","South Goa",15.230305,74.100189,,,
37,16,"Government Primary School, Ghotmorad","South Goa",15.240871,74.103298,,,
37,17,"Government Primary School, Khamamol","South Goa",15.265136,74.107557,,,
37,18,"Govt Govt Primary School, Camaral Curchorem","South Goa",15.265861,74.12129,,,
37,19,"Govt Govt Primary School, Shree Gajanan Curchorem Goa","South Goa",15.262236,74.101428,,,
37,20,"Smt Smt Chandrabhaga Tokuba Naik High School Curchorem Goa Room No No 2,gate No No 1","South Goa",15.263413,74.102442,,,
37,21,"Sarvanjin Bal Vikas Yojana, Shirford Curchorem Goa","South Goa",15.265506,74.101501,,,
37,22,"Govt Govt Primary School Baga Curchorem","South Goa",15.265506,74.101501,,,
37,23,"Govt Govt Primary School Curchorem(east Wing)","South Goa",15.262652,74.105857,,,
37,24,"Govt Govt Primary School Curchorem(west Wing)","South Goa",15.262652,74.105857,,,
37,25,"The Sports Authority of Goa Upgraded Indoor Sports Hall, Curchorem","South Goa",15.262989,74.105929,,,
37,26,"The New Education Institute, Curchorem (std (std Ix C)","South Goa",15.261035,74.11055,,,
38,28,"Govt Primary School, Maida, Collem","South Goa",15.335822,74.247022,,,
38,29,"Govt Govt Primary School, Bharipwada","South Goa",15.324725,74.236183,,,
38,30,"Government Primary School Vakekulna","South Goa",15.329984,74.220827,,,
38,31,"Government Primary School, Shigao","South Goa",15.334068,74.111651,,,
38,32,"Government Primary School Ambeudok","South Goa",15.290964,74.148861,,,
38,33,"Government Primary School Guddemol","South Goa",15.287368,74.130595,,,
38,34,"Govt Govt Primary School Complex Room No 3,sanvordem(east)","South Goa",15.270891,74.111651,,,
38,35,"Shree Sharda English High School, Sanvordem","South Goa",15.287497,74.127105,,,
38,36,"Village Panchayat Office, Sanvordem","South Goa",15.284847,74.135002,,,
38,37,"Govt Govt Primary School Complex Room No No 1, Savordem (west)","South Goa",15.270891,74.111651,,,
30,28,"Multipurpose High School (north Wing), Borda","South Goa",15.285455,73.974734,"Urban area",9,
30,29,"Multipurpose Community Hall New Bldg (east Wing)","South Goa",15.285455,73.974734,"Urban area",9,
30,30,"Govt Govt Industrial Training Institute (middle Wing), Borda","South Goa",15.284912,73.974842,"Urban area",9,
30,32,"Primary Section Multipurpose Bldg,borda","South Goa",15.285073,73.974705,"Urban area",9,
30,33,"Holy Spirit Institute(east Wing), Borda","South Goa",15.281593,73.959781,"Urban area",9,
30,36,"Office Room of Govt Govt Qtrs , Pajifond, Fatorda","South Goa",15.293789,73.963024,,,
30,37,"Old Power House, Pajifond","South Goa",15.293127,73.963381,"Urban area",9,
31,27,"Vidhya Bharathi Primary School, (east Wing)","South Goa",15.276501,73.955433,"Urban area",9,
31,28,"Mahila And Nutan High School","South Goa",15.276524,73.955428,"Urban area",9,
31,29,"Popular High School,behind Police Station ,comba","South Goa",15.274578,73.955876,"Urban area",9,
31,30,"Adarsh V V V High School, (south Wing)","South Goa",15.273279,73.962503,"Urban area",9,
32,1,"Infant Jesus High School (west Wing)","South Goa",15.278907,73.922496,,,
32,2,"Govt Govt Primary School,(south Wing)","South Goa",15.266135,73.929985,,,
32,3,"Infant Jesus High School, Colva","South Goa",15.278907,73.922496,,,
32,4,"Govt Govt Primary School,(north Wing) Sernabatim","South Goa",15.266135,73.929985,,,
32,5,"Govt Govt Middle School(west Wing ) Colva","South Goa",15.278959,73.922807,,,
32,6,"Govt Middle School East Wing","South Goa",15.278959,73.922807,,,
32,7,"Infant Jesus High Schhol, North Wing, New Building Colva","South Goa",15.278907,73.922496,,,
32,8,"Village Panchayat Office","South Goa",15.278959,73.922807,,,
32,9,"Infant Jesus High School","South Goa",15.278907,73.922496,,,
32,10,"Govt Primary School (east Wing)","South Goa",15.28936,73.941293,,,
32,11,"Govt Primary School","South Goa",15.28936,73.941293,,,
32,12,"Village Panchayat (south Wing)","South Goa",15.288925,73.940606,,,
32,13,"Village Panchayat (north Wing)","South Goa",15.288925,73.940606,,,
32,14,"Old G P S S (north Wing)","South Goa",15.275533,73.9358,,,
32,15,"Old G P S S (south Wing)","South Goa",15.275533,73.9358,,,
32,16,"Govt Govt Primary School (east Wing), Near Sebastiao Ch","South Goa",15.24533,73.938053,,,
32,17,"Sub Sub Station Of Office Of Electricity Dept","South Goa",15.253963,73.938997,,,
32,18,"Govt Govt Primary School (west Wing), Nr Sebastiao C, Mazilwado","South Goa",15.24533,73.938053,,,
32,19,"St Aloysius High School","South Goa",15.252379,73.933729,,,
33,4,"Perpetual Succor Convent High School, Navelim (room No 2)","South Goa",15.26067,73.960937,"Urban area",9,
33,5,"Perpetual Succor Convent High School,primary Section ,block 4 1 D, Navelim","South Goa",15.262989,73.955101,"Urban area",9,
33,6,"Govt Govt Primary School, Mandopa (north Wing)","South Goa",15.261747,73.972549,"Urban area",9,
33,7,"Govt Govt Primary School, Mandopa (middle Wing)","South Goa",15.261747,73.972549,"Urban area",9,
33,8,"Govt Govt Primary School, Mandopa (south Wing)","South Goa",15.261747,73.972549,"Urban area",9,
33,9,"Rosary High School Old Bldg , Navelim, (room No 1)","South Goa",15.256571,73.9657,,,
33,10,"Rosary High School Old Bldg , Navelim, (room No 2)","South Goa",15.256411,73.965743,,,
33,11,"Rosary High School Old Bldg , Navelim, (room No 33)","South Goa",15.256356,73.965786,,,
33,12,"Rosary Higher Secondary School Of Arts, Commerce,science And Vocational, Navelim (room No No 22)","South Goa",15.256592,73.965247,,,
33,13,"Village Panchayat Office, Telaulim, 2nd Dadio, 2nd Dadio","South Goa",15.243855,73.958397,,,
24,23,"Office of the Assistant Engineer, Sewarage Department,baina,vasco da Gama","South Goa",15.402548,73.789144,"Urban area",9,
24,24,"Government High School, Baina, Vasco da Gama(room No 1)","South Goa",15.402052,73.789574,"Urban area",9,
24,25,"Government High School, Baina, Vasco da Gama (room No 2)","South Goa",15.403459,73.788887,"Urban area",9,
25,31,"Government High School, Mangor, Vasco da Gama(room No 2)","South Goa",15.392096,73.816659,"Urban area",9,
25,32,"Government High School, Mangor, Vasco da Gama(room No 3)","South Goa",15.392096,73.816659,"Urban area",9,
25,33,"Government High School, Mangor, Vasco da Gama(room No 4)","South Goa",15.392096,73.816659,"Urban area",9,
25,34,"Government High School, New Vaddem, Vasco da Gama(room No 1)","South Goa",15.398375,73.825168,,,
25,35,"Government High School, New Vaddem, Vasco da Gama(room No 2)","South Goa",15.398375,73.825168,,,
25,36,"Government High School, New Vaddem, Vasco da Gama(room No 3)","South Goa",15.398375,73.825168,,,
28,36,"Govt Govt Primary School, Betalbatim (north /central Wing), , Betalbatim","South Goa",15.300687,73.919604,,,
28,37,"Panchayat Library, Betalbatim, Betalbatim","South Goa",15.30102,73.919561,,,
36,7,"Government Primary School, (east Wing) Deao Cusmon, Quepem Goa","South Goa",15.21144,74.070618,,,
36,8,"Government Primary School, Gaonkarwada,deao,quepem Goa","South Goa",15.195043,74.073185,,,
36,9,"Quepem, Municipal Council Meeting Hall Quepem Goa","South Goa",15.213772,74.071495,,,
36,10,"Quepem Municipal Council Administrative Block, Quepem Goa","South Goa",15.213772,74.071495,,,
36,11,"Government Primary School (north Wing), Ambaulim Ambaulim Ambaulim Quepem Goa","South Goa",15.206012,74.069084,,,
36,12,"Government Primary School, South Wing, Ambaulim Ambaulim Ambaulim Quepem Goa","South Goa",15.225227,74.064277,,,
36,13,"Government Primary School, Kumbhar Wada, Sirvoi, Quepem Goa","South Goa",15.193697,74.094991,,,
36,14,"Government Primary School (south Wing) Borimol, Quepem Goa","South Goa",15.217359,74.080853,,,
36,15,"Government Primary School (east Wing) Borimol, Quepem Goa","South Goa",15.217359,74.080853,,,
36,16,"O/o Asst Eng, Sub Division Ii, Work Division Xiv, Command Area Development Authority, Quepem Goa","South Goa",15.216541,74.082154,,,
36,17,"Government Primary School (east Wing), Cotto Cotto Cotto Amona , Quepem Goa","South Goa",15.216854,74.073365,,,
25,30,"Government High School, Mangor, Vasco da Gama(room No 1)","South Goa",15.392096,73.816659,"Urban area",9,
26,1,"Vaddemnagar English High School,vaddemnagar, New Vaddem,vasco da Gama (room No No 1)","South Goa",15.389805,73.863434,,,
26,2,"Vaddemnagar English High School,vaddemnagar , New Vaddem,vasco da Gama (room No No 2)","South Goa",15.389805,73.863434,,,
26,3,"Vaddemnager English High School,vaddenagar, New Vaddem,vasco da Gama (room No No 3)","South Goa",15.389805,73.863434,,,
